mode,stop_id,source_ids,name,lon_gcj02,lat_gcj02,lon_wgs84,lat_wgs84,x_epsg32650,y_epsg32650,line_ids,coord_source
bus,amap_stop_00001,BV09020981,闽江之心(台江步行街)(公交站),119.317408,26.053112,119.31257303548448,26.05616360795842,731365.6049855037,2883955.315464894,350100010003;350100010004;350100010005;350100010008;350100010009;350100010010;350100010023;350100010024;350100010027;350100010028;350100010031;350100010032;350100010051;350100010052;350100010057;350100010058;350100010066;350100010087;350100010088;350100010089;350100010090;350100010153;350100010154;350100010179;350100010180;350100010241;350100010248;350100010270;350100010271;350100010274;350100010275;350100010325;350100010326;350100010327;350100010329;350100010330;350100010349;350100010350;350100010362;350100010363;350100010365;350100010366;350100010405;350100010406;350100010423;350100010424;350100010598;350100010599;900000083059;900000083060;900000144206;900000144207;900000144208;900000144209;900000167351;900000167352;900000185187;900000220899;900000220911,AMap GCJ-02 converted to WGS84/EPSG:32650 in source final dataset
bus,amap_stop_00002,BV09022105,江福路(交警大队)(公交站),119.137042,26.144122,119.1321011510998,26.147154111205573,713139.4669634311,2893728.519155164,900000160847;900000242916,AMap GCJ-02 converted to WGS84/EPSG:32650 in source final dataset
bus,amap_stop_00003,BV09022444,洲尾(公交站),119.357685,25.98107,119.35278190166986,25.983999229450056,735533.8831246383,2876031.3751179203,350100010193;350100010198,AMap GCJ-02 converted to WGS84/EPSG:32650 in source final dataset
bus,amap_stop_00004,BV09022446,城门龙江(公交站),119.37668,25.979988,119.37175372769204,25.982891509787883,737436.0251488927,2875942.975879489,350100010193;350100010198,AMap GCJ-02 converted to WGS84/EPSG:32650 in source final dataset
bus,amap_stop_00005,BV09022447,天福洲(公交站),119.366918,25.980412,119.36200214675108,25.98332733677262,736458.5788383873,2875973.58213448,350100010193;350100010198,AMap GCJ-02 converted to WGS84/EPSG:32650 in source final dataset
bus,amap_stop_00006,BV09022449,方岐洲路西(公交站),119.346647,25.987339,119.34176163023083,25.99029105966762,734417.7844019805,2876708.6958152074,350100010009;350100010010;350100010172;350100010193;350100010198,AMap GCJ-02 converted to WGS84/EPSG:32650 in source final dataset
bus,amap_stop_00007,BV09022450,螺洲古镇地铁站(公交站),119.350279,25.986562,119.3453874105399,25.98950718037161,734782.4210860241,2876628.352807184,350100010009;350100010010;350100010171;350100010172;350100010193;900000242372,AMap GCJ-02 converted to WGS84/EPSG:32650 in source final dataset
bus,amap_stop_00008,BV09023163,闽运汽车北站2站台(公交站),119.317855,26.109444,119.31301493691112,26.11253210458434,731298.9069805638,2890201.770108546,350100010279,AMap GCJ-02 converted to WGS84/EPSG:32650 in source final dataset
bus,amap_stop_00009,BV09023763,万科紫台(公交站),119.464927,26.01243,119.46010365054688,26.015426481335737,746216.142528686,2879711.625204527,900000183715;900000183716,AMap GCJ-02 converted to WGS84/EPSG:32650 in source final dataset
bus,amap_stop_00010,BV09025187,潭桥公交总站(公交站),119.355607,26.098923,119.3506981675142,26.10193493575908,735089.6930676524,2889095.1354426,350100010216;350100010221;350100010264;350100010265;350100010320;350100010321;350100010335;350100010336;900000083059;900000083060;900000094157;900000094158;900000146903;900000146904,AMap GCJ-02 converted to WGS84/EPSG:32650 in source final dataset
bus,amap_stop_00011,BV09025199,横屿路板桥路口(公交站),119.34967,26.093583,119.34477132971516,26.0966013697556,734507.4003263329,2888493.467652354,350100010320;350100010321;900000083059;900000083060,AMap GCJ-02 converted to WGS84/EPSG:32650 in source final dataset
bus,amap_stop_00012,BV09025200,省儿童医院西门(公交站),119.356875,26.096018,119.35196441237672,26.09902599722921,735222.1964111542,2888775.105427636,350100010157;350100010158;350100010320;350100010321;900000083059;900000083060,AMap GCJ-02 converted to WGS84/EPSG:32650 in source final dataset
bus,amap_stop_00013,BV09025201,洋头尾路东(公交站),119.343587,26.091,119.33869924893636,26.094027467475406,733905.0287597245,2888197.3458005544,900000083059;900000083060,AMap GCJ-02 converted to WGS84/EPSG:32650 in source final dataset
bus,amap_stop_00014,BV09025203,福州第十一中学(横屿校区)(公交站),119.354755,26.094282,119.34984787089913,26.09729227220223,735013.9136277663,2888579.179648073,350100010320;350100010321;900000083059;900000083060,AMap GCJ-02 converted to WGS84/EPSG:32650 in source final dataset
bus,amap_stop_00015,BV09387450,横屿路(公交站),119.347267,26.093349,119.34237250583811,26.09637141691268,734267.8628785985,2888463.667738744,900000083060,AMap GCJ-02 converted to WGS84/EPSG:32650 in source final dataset
bus,amap_stop_00016,BV09026471,横屿路(公交站),119.333505,26.093337,119.32863595534998,26.09638481119565,732893.5333874789,2888440.495950797,350100010320;350100010321;900000146903;900000146904;900000219138;900000219146,AMap GCJ-02 converted to WGS84/EPSG:32650 in source final dataset
bus,amap_stop_00017,BV09026590,阳岐严复故里(公交站),119.281062,25.996828,119.27628888089257,25.999898157628376,727843.0393804446,2877657.293471396,350100010357,AMap GCJ-02 converted to WGS84/EPSG:32650 in source final dataset
bus,amap_stop_00018,BV09026925,横屿路潭桥路口(公交站),119.347267,26.093349,119.34237250583811,26.09637141691268,734267.8628785985,2888463.667738744,350100010320;350100010321;900000083059;900000219138;900000219144;900000219146;900000219148,AMap GCJ-02 converted to WGS84/EPSG:32650 in source final dataset
bus,amap_stop_00019,BV09029245,九〇〇医院(原总院)(公交站),119.282044,26.088521,119.27726291214636,26.09165184817549,727763.0520543547,2887825.16564394,350100010023;350100010024;350100010200;350100010207;350100010256;350100010295;350100010296;350100010299;350100010737;900000169184;900000169185,AMap GCJ-02 converted to WGS84/EPSG:32650 in source final dataset
bus,amap_stop_00020,BV09045881,清华附中福州学校(公交站),119.377767,26.014924,119.37283712941736,26.01785023963914,737474.1589057667,2879818.462387501,350100010224;350100010233,AMap GCJ-02 converted to WGS84/EPSG:32650 in source final dataset
bus,amap_stop_00021,BV09048611,樟岚公交总站(公交站),119.378968,26.01304,119.37403728792492,26.015963800506658,737598.114808757,2879611.6241414747,900000208818;900000215327,AMap GCJ-02 converted to WGS84/EPSG:32650 in source final dataset
bus,amap_stop_00022,BV09049764,闽江之心(公交站),119.317222,26.053163,119.31238738514436,26.056214989286463,731346.9240393916,2883960.678958854,900000025642,AMap GCJ-02 converted to WGS84/EPSG:32650 in source final dataset
bus,amap_stop_00023,BV09052934,福州市妇幼保健院(公交站),119.289795,26.020013,119.28500919582731,26.023088064377465,728671.2150051959,2880241.942684859,900000186795;900000228016;900000228019,AMap GCJ-02 converted to WGS84/EPSG:32650 in source final dataset
bus,amap_stop_00024,BV11567840,亭下(公交站),119.332269,26.104858,119.32740145828986,26.10791571582917,732747.1790281532,2889715.93045304,350100010250;350100010255;900000224763,AMap GCJ-02 converted to WGS84/EPSG:32650 in source final dataset
bus,amap_stop_00025,BV09054029,亭下(公交站),119.146451,26.147666,119.14152569367224,26.150714780819385,714075.37726702,2894138.514270529,350100010059;350100010060;350100010342;350100010393;350100010394;350100010731;350100010732;900000042908;900000046206;900000152292,AMap GCJ-02 converted to WGS84/EPSG:32650 in source final dataset
bus,amap_stop_00026,BV09055732,秀山地铁站B口(公交站),119.321367,26.134198,119.31651833264488,26.13729543732854,731600.4854840889,2892951.8173824064,350100010516;900000071235,AMap GCJ-02 converted to WGS84/EPSG:32650 in source final dataset
bus,amap_stop_00027,BV09057177,北门(公交站),119.293015,26.10079,119.2882185368494,26.10391459725797,728835.2669769389,2889203.0913685984,350100010021;350100010022;350100010081;350100010082;350100010099;350100010100;350100010131;350100010132;350100010167;350100010168;350100010266;350100010267;350100010407;350100010408;350100010619;350100010620;900000049875;900000049876;900000186785;900000192611,AMap GCJ-02 converted to WGS84/EPSG:32650 in source final dataset
bus,amap_stop_00028,BV10572898,北门,118.934136,25.870534,118.9295840227029,25.87370243675884,693337.0757888264,2863118.3519343776,900000034476;900000035847;900000186777;900000186795;900000228019,AMap GCJ-02 converted to WGS84/EPSG:32650 in source final dataset
bus,amap_stop_00029,BV09058362,秀山地铁站D口(公交站),119.320302,26.132961,119.31545547611634,26.136059662092705,731496.6266589717,2892812.997764782,350100010517;900000071234,AMap GCJ-02 converted to WGS84/EPSG:32650 in source final dataset
bus,amap_stop_00030,BV09059673,盘屿地铁站A口(公交站),119.294389,25.999003,119.28959811574842,26.00205719134369,729171.4604193631,2877919.800186413,350100010087;350100010088;350100010429;350100010430;900000055347;900000055360,AMap GCJ-02 converted to WGS84/EPSG:32650 in source final dataset
bus,amap_stop_00031,BV09060730,市政务服务中心(公交站),119.307055,26.070462,119.30223783751605,26.073543973884444,730297.2380228433,2885862.752047872,350100010005;350100010008;350100010015;350100010016;350100010145;350100010146;350100010250;350100010255;350100010293;350100010294;350100010325,AMap GCJ-02 converted to WGS84/EPSG:32650 in source final dataset
bus,amap_stop_00032,BV09060917,水头白塔里(公交站),119.320891,26.102755,119.31604562552124,26.10583303020196,731615.2859015157,2889464.897944956,350100010207;900000079599;900000133373,AMap GCJ-02 converted to WGS84/EPSG:32650 in source final dataset
bus,amap_stop_00033,BV09062488,温泉小学(公交站),119.310799,26.099644,119.30597288520276,26.102738657851592,730613.7038191768,2889104.145268028,350100010044;350100010111;350100010197;900000205225;900000205226,AMap GCJ-02 converted to WGS84/EPSG:32650 in source final dataset
bus,amap_stop_00034,BV09062503,迎飞花园西门(公交站),119.325805,26.014457,119.32095679000528,26.017466544499843,732280.9376806365,2879682.572512924,350100010180;350100010599,AMap GCJ-02 converted to WGS84/EPSG:32650 in source final dataset
bus,amap_stop_00035,BV09062504,福州环保职专跨洋校区(公交站),119.324516,26.016834,119.31967010694244,26.01984762087356,732147.4350462665,2879944.106737094,350100010598;350100010599,AMap GCJ-02 converted to WGS84/EPSG:32650 in source final dataset
bus,amap_stop_00036,BV09063064,福道7号口(公交站),119.254185,26.080965,119.2494223915773,26.08410966265156,724992.0964126405,2886941.090587197,350100010032;350100010033;350100010147;350100010286;350100010311;350100010338;350100010366;900000048928;900000149278;900000149864;900000254110,AMap GCJ-02 converted to WGS84/EPSG:32650 in source final dataset
bus,amap_stop_00037,BV09067687,福建船政交通职业学院(公交站),119.313407,26.027723,119.30858147994604,26.03076484307884,731015.9402556501,2881134.0526529583,350100010041;350100010042;350100010073;350100010074;350100010135;350100010136;350100010179;350100010180;350100010254;350100010256;350100010272;350100010273;350100010362;350100010363;350100010508;350100010510;900000062588;900000062593;900000166947;900000166948;900000167357;900000167358,AMap GCJ-02 converted to WGS84/EPSG:32650 in source final dataset
bus,amap_stop_00038,BV09069208,三江口生态公园(公交站),119.393169,26.008031,119.38823173594898,26.010941830102663,739029.4086844841,2879081.0921483804,350100010280,AMap GCJ-02 converted to WGS84/EPSG:32650 in source final dataset
bus,amap_stop_00039,BV09070880,八中三江口校区(公交站),119.419078,25.974799,119.41415563318566,25.977691673557885,741693.0617388792,2875444.5547223603,900000042667;900000042668;900000157702;900000157703,AMap GCJ-02 converted to WGS84/EPSG:32650 in source final dataset
bus,amap_stop_00040,BV09070916,乐西(东)西侧(公交站),119.326898,26.074896,119.32204311147328,26.07794421012701,732270.3746611588,2886385.473388155,900000140959,AMap GCJ-02 converted to WGS84/EPSG:32650 in source final dataset
bus,amap_stop_00041,BV09073123,马尾区老年大学(公交站),119.455861,25.985905,119.45101243213183,25.988861769174903,745361.1536189464,2876750.960336969,900000079724;900000079725;900000079728;900000079729,AMap GCJ-02 converted to WGS84/EPSG:32650 in source final dataset
bus,amap_stop_00042,BV09073271,东江滨儿童公园(公交站),119.406384,26.015248,119.40144825968464,26.01816232307021,740337.9647586804,2879905.4230674924,350100010242;350100010398;350100010404;900000167351,AMap GCJ-02 converted to WGS84/EPSG:32650 in source final dataset
bus,amap_stop_00043,BV09073272,快安路南(公交站),119.41888,26.015,119.4139543515988,26.01791993699712,741590.534035627,2879901.659171668,350100010237;350100010242;900000125029;900000125030,AMap GCJ-02 converted to WGS84/EPSG:32650 in source final dataset
bus,amap_stop_00044,BV09073273,葆桢路南(公交站),119.405134,26.017908,119.40019748847546,26.02082393970781,740207.3188079768,2880198.038272227,350100010057;350100010058;350100010069;350100010070;350100010511;350100010512,AMap GCJ-02 converted to WGS84/EPSG:32650 in source final dataset
bus,amap_stop_00045,BV09073274,宗棠路口(公交站),119.39876,26.015911,119.39382196222634,26.0188256711913,739573.0982091812,2879964.900939444,350100010058;350100010070;350100010237;350100010242;350100010397;350100010398;350100010403;350100010404;350100010513,AMap GCJ-02 converted to WGS84/EPSG:32650 in source final dataset
bus,amap_stop_00046,BV09073400,朏头路南(公交站),119.433755,26.004526,119.4288525086222,26.007454798189453,743103.6773332629,2878769.731347788,350100010234;350100010251;350100010624;350100010625;900000079728;900000079729,AMap GCJ-02 converted to WGS84/EPSG:32650 in source final dataset
bus,amap_stop_00047,BV09074411,员工公寓西门(公交站),119.1429,26.142298,119.13796886423223,26.14533770991879,713729.5219820682,2893536.913388388,900000227838;900000227841,AMap GCJ-02 converted to WGS84/EPSG:32650 in source final dataset
bus,amap_stop_00048,BV09074412,江福路(公交站),119.137218,26.144548,119.13227739209523,26.147580630551165,713156.3148775494,2893776.0637347526,350100010732;900000160846;900000189726;900000189727;900000242915,AMap GCJ-02 converted to WGS84/EPSG:32650 in source final dataset
bus,amap_stop_00049,BV09078848,马榕地铁站(公交站),119.258105,26.055743,119.2533435764544,26.05886986393964,725432.7880962717,2884151.360488324,350100010109;350100010110;350100010211;350100010212;350100010405;350100010406;900000066437;900000066438;900000118768;900000118769;900000240972;900000240994,AMap GCJ-02 converted to WGS84/EPSG:32650 in source final dataset
bus,amap_stop_00050,BV09078849,鼓楼工业园(公交站),119.265869,26.029129,119.26110635818506,26.03223431000348,726260.8187507566,2881213.653055927,900000029241;900000029242;900000066437;900000066438,AMap GCJ-02 converted to WGS84/EPSG:32650 in source final dataset
bus,amap_stop_00051,BV09079791,新后坂停车场(公交站),119.341111,26.019157,119.33623322246451,26.02214077692832,733801.0543419174,2880227.762216262,350100010031;900000191300,AMap GCJ-02 converted to WGS84/EPSG:32650 in source final dataset
bus,amap_stop_00052,BV09082209,怡馨苑(公交站),119.312355,26.116285,119.3075247650684,26.119387688440963,730736.2388391576,2890951.622773497,350100010163;350100010164;350100010231;350100010236,AMap GCJ-02 converted to WGS84/EPSG:32650 in source final dataset
bus,amap_stop_00053,BV09089780,屏西·武警总院(公交站),119.288915,26.10476,119.2841240550622,26.10789293374774,728417.9241356852,2889636.6943771644,900000192611,AMap GCJ-02 converted to WGS84/EPSG:32650 in source final dataset
bus,amap_stop_00054,BV09089781,马尾区图书馆(公交站),119.459853,25.984164,119.45501619238456,25.987128798226127,745765.7138056168,2876566.462533345,900000192611,AMap GCJ-02 converted to WGS84/EPSG:32650 in source final dataset
bus,amap_stop_00055,BV09089997,泉头新店外环路南(公交站),119.344824,26.131689,119.339930927249,26.134740654734102,733947.1193050318,2892710.679311854,900000192901,AMap GCJ-02 converted to WGS84/EPSG:32650 in source final dataset
bus,amap_stop_00056,BV09091861,埔顶(汇达广场)站(公交站),119.322044,26.041441,119.31720102984376,26.0444760094424,731851.7900199261,2882668.5482441853,900000096030,AMap GCJ-02 converted to WGS84/EPSG:32650 in source final dataset
bus,amap_stop_00057,BV09091862,三环淮安路口(西侧)(公交站),119.227622,26.090404,119.22284702029552,26.09354615038988,722315.2946031234,2887940.9689096333,900000125547;900000166343,AMap GCJ-02 converted to WGS84/EPSG:32650 in source final dataset
bus,amap_stop_00058,BV09091863,赤星路南(公交站),119.29027,26.12856,119.28547539758642,26.131706481751,728506.7452135137,2892277.605648918,350100010093;350100010094,AMap GCJ-02 converted to WGS84/EPSG:32650 in source final dataset
bus,amap_stop_00059,BV09091864,茶亭(附一医院)(公交站),119.304188,26.069905,119.29937589954146,26.072991524963392,730011.9381469622,2885796.4834340224,350100010304,AMap GCJ-02 converted to WGS84/EPSG:32650 in source final dataset
bus,amap_stop_00060,BV09091866,交通南路(原县劳动局)(公交站),119.133909,26.148746,119.1289630887334,26.151776704271114,712817.2849127204,2894235.526049544,350100010393;350100010394;350100010731;900000042908;900000046206,AMap GCJ-02 converted to WGS84/EPSG:32650 in source final dataset
bus,amap_stop_00061,BV09091872,三环淮安路口(东侧)(公交站),119.228134,26.091163,119.22335944999026,26.094306062391944,722365.1227135946,2888026.039926204,900000125547;900000166343,AMap GCJ-02 converted to WGS84/EPSG:32650 in source final dataset
bus,amap_stop_00062,BV09091878,员工公寓(南)(公交站),119.14357,26.140391,119.13864016296128,26.143430554941386,713800.126846889,2893326.7176109217,350100010731;350100010732,AMap GCJ-02 converted to WGS84/EPSG:32650 in source final dataset
bus,amap_stop_00063,BV09091880,铁岭工业区一期路口(公交站),119.175386,26.141844,119.17051924968546,26.144941656400007,716985.219458265,2893546.98616436,350100010342;900000152292,AMap GCJ-02 converted to WGS84/EPSG:32650 in source final dataset
bus,amap_stop_00064,BV09092464,凤里巷口(公交站),119.274709,26.08157,119.2699359541398,26.08470381493248,727043.4200745141,2887042.532204874,350100010071;350100010097;350100010098;350100010102;350100010109;350100010110;350100010114;350100010286,AMap GCJ-02 converted to WGS84/EPSG:32650 in source final dataset
bus,amap_stop_00065,BV09092465,凤凰池新村北门(公交站),119.276141,26.082351,119.2713665738964,26.08548399243985,727185.0521419158,2887131.47048527,350100010071;350100010097;350100010098;350100010102;350100010109;350100010110;350100010114;350100010286,AMap GCJ-02 converted to WGS84/EPSG:32650 in source final dataset
bus,amap_stop_00066,BV09092466,八一六花园(公交站),119.276869,26.082265,119.27209388048657,26.08539722805781,727257.9895641728,2887123.126453425,350100010071;350100010072;350100010097;350100010110;350100010113;350100010114;900000146212,AMap GCJ-02 converted to WGS84/EPSG:32650 in source final dataset
bus,amap_stop_00067,BV09092648,昌宇五金顺邦纺织(公交站),119.184293,26.141765,119.17944475828077,26.144879203794737,717877.8766138298,2893555.0035951096,350100010342,AMap GCJ-02 converted to WGS84/EPSG:32650 in source final dataset
bus,amap_stop_00068,BV09093281,省妇产医院(下张)(公交站),119.312425,26.137097,119.30759306533632,26.140212911133258,730702.1199448861,2893259.200403019,350100010232;900000029831;900000029832;900000030782;900000030783;900000077426;900000077427;900000082435;900000082436;900000122166;900000172639,AMap GCJ-02 converted to WGS84/EPSG:32650 in source final dataset
bus,amap_stop_00069,BV09094539,闽侯经开区管委会(公交站),119.161038,26.155077,119.1561403447472,26.15815601709685,715523.0565759529,2894987.128001886,900000193359;900000193360,AMap GCJ-02 converted to WGS84/EPSG:32650 in source final dataset
bus,amap_stop_00070,BV09094649,洪湾地铁站(公交站),119.249843,26.046299,119.245083021568,26.04942083505408,724624.1371279474,2883090.1719678496,350100010097;350100010098;900000215287;900000215288,AMap GCJ-02 converted to WGS84/EPSG:32650 in source final dataset
bus,amap_stop_00071,BV09094701,泉头路西(北侧)(公交站),119.346607,26.134981,119.34171050289234,26.13803156356667,734118.53426907,2893078.525950184,900000192900,AMap GCJ-02 converted to WGS84/EPSG:32650 in source final dataset
bus,amap_stop_00072,BV09094702,泉头路西(南侧)(公交站),119.348111,26.135074,119.34321186115668,26.13812196728754,734268.5074027898,2893091.2488417425,900000192900;900000192901,AMap GCJ-02 converted to WGS84/EPSG:32650 in source final dataset
bus,amap_stop_00073,BV09096054,方圆机电(公交站),119.161191,26.152362,119.15629386308076,26.155439602346625,715543.4018720761,2894686.4193059723,350100010731;350100010732,AMap GCJ-02 converted to WGS84/EPSG:32650 in source final dataset
bus,amap_stop_00074,BV09096384,北园路南台路口(公交站),119.322426,26.024063,119.31758360229416,26.027085510882944,731924.3116555512,2880742.355862993,350100010503;350100010509;900000096029;900000096030;900000140680;900000140681,AMap GCJ-02 converted to WGS84/EPSG:32650 in source final dataset
bus,amap_stop_00075,BV09098371,齐安高架桥(公交站),119.301956,26.021237,119.29715135592669,26.024294440100487,729884.3856347832,2880396.944276053,900000062593,AMap GCJ-02 converted to WGS84/EPSG:32650 in source final dataset
bus,amap_stop_00076,BV09101867,福源机械(东)(公交站),119.172427,26.153395,119.16755316074756,26.156494332869947,716667.262666066,2894822.0125026386,350100010342,AMap GCJ-02 converted to WGS84/EPSG:32650 in source final dataset
bus,amap_stop_00077,BV09103121,燎原路水岸路口(公交站),119.283461,26.045336,119.27868148384896,26.04843633784754,727988.7113612895,2883039.417982118,350100010239;350100010247;350100010371;350100010373;900000163807;900000163808;900000194318;900000194319;900000242114;900000242133,AMap GCJ-02 converted to WGS84/EPSG:32650 in source final dataset
bus,amap_stop_00078,BV09103244,金山地铁站F口(公交站),119.26249,26.046285,119.25772776645952,26.04940374745044,725889.7007738749,2883110.1281035254,350100010046;350100010099;350100010100;350100010111;350100010112;350100010304;350100010305;350100010345;350100010346;350100010354;350100010355;350100010380;350100010439;350100010440;350100010508;350100010510;900000118768;900000220797;900000220798,AMap GCJ-02 converted to WGS84/EPSG:32650 in source final dataset
bus,amap_stop_00079,BV09103511,地铁葫芦阵(东侧)(公交站),119.342743,26.018181,119.33786230135662,26.021161116911227,733966.0863790552,2880122.1348781725,350100010032;900000191301,AMap GCJ-02 converted to WGS84/EPSG:32650 in source final dataset
bus,amap_stop_00080,BV09103514,闽越水镇(中埕村)(公交站),119.114532,26.129648,119.10956618653913,26.13264674306881,710912.1709628515,2892084.4436332006,350100010396;350100010399;350100010628;350100010629;900000088960;900000088961;900000238836;900000238837,AMap GCJ-02 converted to WGS84/EPSG:32650 in source final dataset
bus,amap_stop_00081,BV09105369,地铁葫芦阵(公交站),119.342743,26.018181,119.33786230135662,26.021161116911227,733966.0863790552,2880122.1348781725,350100010009;350100010010;350100010011;350100010012;350100010035;350100010036;350100010051;350100010052;350100010080;350100010165;350100010224;350100010231;350100010233;350100010238;350100010241;350100010245;350100010248;350100010312;350100010313;350100010325;350100010501;350100010502;350100010508;350100010510;900000025642;900000028085;900000028087;900000042667;900000042668;900000088182;900000088183;900000103910;900000103911;900000114300;900000114301;900000140680;900000140681,AMap GCJ-02 converted to WGS84/EPSG:32650 in source final dataset
bus,amap_stop_00082,BV09106156,海军医院(马尾快线停车场)(公交站),119.459171,25.98461,119.45433213112908,25.98757349236785,745696.2826562596,2876614.450752601,900000194352,AMap GCJ-02 converted to WGS84/EPSG:32650 in source final dataset
bus,amap_stop_00083,BV09107759,金牛山公园(江滨西大道)(公交站),119.261467,26.075195,119.2567030300916,26.07833359849569,725731.64166933,2886313.7159192306,900000146201;900000254110,AMap GCJ-02 converted to WGS84/EPSG:32650 in source final dataset
bus,amap_stop_00084,BV09107761,孟超肝胆医院金山院区西门(公交站),119.241533,26.059113,119.23676999607652,26.06224218269741,723767.7717554809,2884496.437972937,350100010097;350100010098;350100010737;350100010767,AMap GCJ-02 converted to WGS84/EPSG:32650 in source final dataset
bus,amap_stop_00085,BV09108376,杨廷(公交站),119.340868,26.140068,119.33598150611336,26.14313220608035,733535.4098076463,2893633.380760656,350100010733;350100010734,AMap GCJ-02 converted to WGS84/EPSG:32650 in source final dataset
bus,amap_stop_00086,BV09108887,鹤林生态公园(西行)(公交站),119.346506,26.089323,119.34161315056156,26.092344112479488,734199.9174434831,2888016.0666317204,900000094157,AMap GCJ-02 converted to WGS84/EPSG:32650 in source final dataset
bus,amap_stop_00087,BV09108888,鹤林生态公园(东行)(公交站),119.34684,26.089184,119.3419465721808,26.092204427624026,734233.5549695365,2888001.18924729,900000094157,AMap GCJ-02 converted to WGS84/EPSG:32650 in source final dataset
bus,amap_stop_00088,BV09109142,仓山检察院(公交站),119.332036,26.042111,119.32717365277462,26.045127401508083,732848.6700114184,2882758.4957015663,350100010329,AMap GCJ-02 converted to WGS84/EPSG:32650 in source final dataset
bus,amap_stop_00089,BV09109143,雁头(公交站),119.341556,26.041001,119.33667574926008,26.04399876681429,733801.9818293252,2882650.4469917347,350100010274;350100010275;350100010280;350100010328;350100010329;350100010330;350100010779;350100010780;900000062588;900000062593,AMap GCJ-02 converted to WGS84/EPSG:32650 in source final dataset
bus,amap_stop_00090,BV09109144,江边新苑(公交站),119.345241,26.038143,119.34035427928715,26.041132132135942,734175.8723380796,2882339.421304441,350100010275;900000062588,AMap GCJ-02 converted to WGS84/EPSG:32650 in source final dataset
bus,amap_stop_00091,BV09109145,祥浦苑(公交站),119.352062,26.037107,119.3471635936216,26.04008353504371,734859.5386578116,2882235.4818595946,350100010440,AMap GCJ-02 converted to WGS84/EPSG:32650 in source final dataset
bus,amap_stop_00092,BV09109146,观澜云著C区(公交站),119.346606,26.037066,119.34171693772616,26.04005196507897,734314.4155783543,2882222.185097605,350100010274,AMap GCJ-02 converted to WGS84/EPSG:32650 in source final dataset
bus,amap_stop_00093,BV09109147,观澜云著B区(公交站),119.347926,26.039017,119.34303447732576,26.042001952392805,734442.4141790413,2882440.61507309,350100010274;350100010280;350100010779;900000062593,AMap GCJ-02 converted to WGS84/EPSG:32650 in source final dataset
bus,amap_stop_00094,BV09109148,观澜云著A区(公交站),119.347911,26.039141,119.34301949402786,26.042126062597497,734440.6674147042,2882454.3397461497,350100010275;350100010328;350100010440;350100010780;900000062588,AMap GCJ-02 converted to WGS84/EPSG:32650 in source final dataset
bus,amap_stop_00095,BV09109827,雁头路西(公交站),119.33744,26.042102,119.33256734186637,26.045108165158805,733388.5656436528,2882766.0086540827,350100010274;350100010275;350100010280;350100010328;350100010329;350100010330;350100010779;900000062593,AMap GCJ-02 converted to WGS84/EPSG:32650 in source final dataset
bus,amap_stop_00096,BV09110016,雁头路东(公交站),119.351212,26.03582,119.34631510698505,26.03879710416213,734777.1727344429,2882091.415085434,350100010329;350100010330;350100010440,AMap GCJ-02 converted to WGS84/EPSG:32650 in source final dataset
bus,amap_stop_00097,BV09110051,江边洲路(公交站),119.351607,26.039341,119.34670918005727,26.04231981533239,734809.5958693543,2882482.447372955,350100010274;350100010275;350100010280;350100010328;350100010779;350100010780,AMap GCJ-02 converted to WGS84/EPSG:32650 in source final dataset
bus,amap_stop_00098,BV09110188,金山(公交站),119.264007,26.042116,119.25924437497292,26.04523116259189,726049.4978574673,2882650.444257978,900000034476,AMap GCJ-02 converted to WGS84/EPSG:32650 in source final dataset
bus,amap_stop_00099,BV09111258,美墩桥南(公交站),119.337844,26.044222,119.3329704199871,26.047228838979187,733424.7065673341,2883001.7034894805,350100010779;350100010780;900000062588;900000062593,AMap GCJ-02 converted to WGS84/EPSG:32650 in source final dataset
bus,amap_stop_00100,BV09112442,附中站(公交站),119.313531,26.042201,119.30870416005487,26.045252419100503,730999.8120747037,2882739.4921549694,350100010272;350100010273;350100010325;350100010371;350100010373;900000025642;900000139516;900000139517;900000232440,AMap GCJ-02 converted to WGS84/EPSG:32650 in source final dataset
bus,amap_stop_00101,BV09112444,对湖(公交站),119.309265,26.040596,119.30444612099552,26.043654023891392,730576.7564563961,2882554.852828193,350100010272;350100010273;350100010325;350100010371;350100010373;900000025642;900000139516;900000139517;900000232440,AMap GCJ-02 converted to WGS84/EPSG:32650 in source final dataset
bus,amap_stop_00102,BV09113524,梅峰宾馆(融侨三区)(公交站),119.279843,26.097657,119.27506367783008,26.100796313559584,727525.3152792242,2888834.5173752904,350100010202;350100010489,AMap GCJ-02 converted to WGS84/EPSG:32650 in source final dataset
bus,amap_stop_00103,BV09115776,船政(公交站),119.444316,25.99225,119.4394368479379,25.995187514320133,744188.8457607965,2877430.197784976,350100010057;350100010058;350100010234;350100010251;350100010397;350100010398;350100010403;350100010404;350100010513;350100010514;350100010738;350100010739;900000076998;900000076999;900000080066;900000080067;900000082325;900000082326;900000122233;900000122234;900000125029;900000125030;900000161271;900000161600;900000161666;900000161667;900000167351;900000167352;900000226061;900000226062;900000228769;900000228770,AMap GCJ-02 converted to WGS84/EPSG:32650 in source final dataset
bus,amap_stop_00104,BV09116443,三高路东(公交站),119.332126,26.036465,119.32726390603226,26.039477412470376,732868.8735403442,2882132.6331911334,350100010019;350100010020;350100010032;350100010117;350100010118;350100010165;350100010166;350100010249;350100010253;350100010312;350100010313;350100010316;350100010317;350100010430;350100010439;350100010440;350100010513;350100010514;900000028087;900000077842;900000077843;900000114300;900000114301;900000175764;900000175765;900000193763;900000193764,AMap GCJ-02 converted to WGS84/EPSG:32650 in source final dataset
bus,amap_stop_00105,BV09118748;BV10561554,盛天·现代城(前屿村)(公交站),119.34965,26.070727,119.34475309979346,26.07373025594537,734551.2031895987,2885959.263431802,350100010049;350100010050;350100010069;350100010070;350100010091;350100010092;350100010139;350100010140;350100010151;350100010152;350100010310;350100010501;350100010502,AMap GCJ-02 converted to WGS84/EPSG:32650 in source final dataset
bus,amap_stop_00106,BV09118929,员工公寓(公交站),119.145486,26.141055,119.1405594719572,26.14409803759856,713990.8374207219,2893403.82984978,900000088960;900000088961,AMap GCJ-02 converted to WGS84/EPSG:32650 in source final dataset
bus,amap_stop_00107,BV09120406,榕璟(公交站),119.118581,26.135223,119.1136180014118,26.138228365922966,711307.3268152081,2892709.4244796084,900000195944;900000195945,AMap GCJ-02 converted to WGS84/EPSG:32650 in source final dataset
bus,amap_stop_00108,BV09120407,闽越水镇(公交站),119.117059,26.131057,119.11209501971652,26.13405848383431,711162.5307920033,2892244.95896981,900000195944;900000195945,AMap GCJ-02 converted to WGS84/EPSG:32650 in source final dataset
bus,amap_stop_00109,BV09120409,荷洋(古祥居)(公交站),119.149409,26.104654,119.14449237900008,26.10768010736311,714450.6533603995,2889375.4452406988,900000160846;900000242915,AMap GCJ-02 converted to WGS84/EPSG:32650 in source final dataset
bus,amap_stop_00110,BV09120854,义井公交总站(公交站),119.293178,26.118292,119.28837998181837,26.121427746972703,728817.2880674204,2891143.830662691,350100010095;350100010096;350100010173;350100010174;350100010619;350100010620;900000071234;900000071235;900000106362;900000106363,AMap GCJ-02 converted to WGS84/EPSG:32650 in source final dataset
bus,amap_stop_00111,BV09121212,三江口地铁站(公交站),119.425458,25.979249,119.42054358498255,25.982150429579274,742323.6784343738,2875950.436136788,900000042667;900000042668;900000157702;900000157703,AMap GCJ-02 converted to WGS84/EPSG:32650 in source final dataset
bus,amap_stop_00112,BV09121213,下洋地铁站(公交站),119.421059,25.98406,119.41613828132029,25.98696057381349,741872.6423421694,2876475.2591756154,900000157702;900000157703,AMap GCJ-02 converted to WGS84/EPSG:32650 in source final dataset
bus,amap_stop_00113,BV09123250,东水路口(公交站),119.314544,26.087588,119.30971184817952,26.09066791445117,731011.4813208269,2887773.3308005254,350100010021;350100010022;350100010025;350100010026;350100010047;350100010048;350100010073;350100010074;350100010109;350100010110;350100010168;350100010288;350100010289;350100010304;350100010305;350100010335;350100010336;350100010354;350100010355;350100010742;350100010743;900000049875;900000106362;900000106363,AMap GCJ-02 converted to WGS84/EPSG:32650 in source final dataset
bus,amap_stop_00114,BV09126960,葫芦阵地铁站C口(公交站),119.343972,26.016703,119.33908918236098,26.01967987528193,734091.8521300101,2879960.212024425,900000103911,AMap GCJ-02 converted to WGS84/EPSG:32650 in source final dataset
bus,amap_stop_00115,BV09134084,江山铭著(公交站),119.228852,26.093278,119.22407795758858,26.09642301757407,722432.998291116,2888261.8192261434,350100010623;900000069611;900000125547;900000166343,AMap GCJ-02 converted to WGS84/EPSG:32650 in source final dataset
bus,amap_stop_00116,BV09135153,福新公交总站(公交站),119.358695,26.0819,119.35378272324328,26.084895824752536,735432.4151854434,2887212.7310123187,900000097540,AMap GCJ-02 converted to WGS84/EPSG:32650 in source final dataset
bus,amap_stop_00117,BV09137262,十八中象园分校南门(公交站),119.326946,26.061984,119.3220919936869,26.06502349464744,732300.7799632434,2884953.9324576347,900000141450;900000141451,AMap GCJ-02 converted to WGS84/EPSG:32650 in source final dataset
bus,amap_stop_00118,BV09139921,竹屿地铁站B口(公交站),119.33652,26.09315,119.33164521757516,26.096191982746983,733194.9834811551,2888424.5191472936,350100010321;900000146903;900000219146,AMap GCJ-02 converted to WGS84/EPSG:32650 in source final dataset
bus,amap_stop_00119,BV09139922,省行政学院上街校区北门(公交站),119.199198,26.095093,119.19438222859893,26.098202881463823,719458.8623146691,2888408.6060709865,900000122012;900000122013;900000204650;900000204651,AMap GCJ-02 converted to WGS84/EPSG:32650 in source final dataset
bus,amap_stop_00120,BV09142153,竹屿地铁站(公交站),119.339169,26.092956,119.33428924274835,26.095992891299115,733459.9063713271,2888407.2000388354,350100010320;350100010321;900000079599;900000133373;900000219138;900000219144;900000219146;900000219148,AMap GCJ-02 converted to WGS84/EPSG:32650 in source final dataset
bus,amap_stop_00121,BV09144640,行政服务中心(县税务局)(公交站),119.144119,26.137178,119.13919036109222,26.14021638548266,713861.0067164755,2892971.514224329,900000042976,AMap GCJ-02 converted to WGS84/EPSG:32650 in source final dataset
bus,amap_stop_00122,BV09148286,龙台路东(公交站),119.201557,26.094561,119.196745480846,26.097674266676865,719696.2695332891,2888354.0253304383,900000122012;900000122013;900000204650;900000204651,AMap GCJ-02 converted to WGS84/EPSG:32650 in source final dataset
bus,amap_stop_00123,BV09148287,西园公交总站(公交站),119.32141,26.118739,119.31656241838007,26.12182643747997,731635.4310223311,2891237.9079863057,350100010266;350100010267;350100010427;350100010428,AMap GCJ-02 converted to WGS84/EPSG:32650 in source final dataset
bus,amap_stop_00124,BV09151261,清华附中福州学校西门(公交站),119.375709,26.018395,119.37078068719364,26.0213257003,737261.2827754625,2880199.812228204,350100010224,AMap GCJ-02 converted to WGS84/EPSG:32650 in source final dataset
bus,amap_stop_00125,BV09154582,孟超肝胆医院西洪院区(鸡角弄)(公交站),119.280348,26.083883,119.2755691614925,26.08701268291275,727602.5772262481,2887308.188117829,350100010072;350100010097;350100010109;350100010110;350100010114;350100010207;900000146212,AMap GCJ-02 converted to WGS84/EPSG:32650 in source final dataset
bus,amap_stop_00126,BV09154720,市妇幼保健院门诊楼(公交站),119.289764,26.021166,119.28497815249884,26.02424189051334,728665.8692516291,2880369.730594818,350100010503;350100010509;900000175768;900000175769,AMap GCJ-02 converted to WGS84/EPSG:32650 in source final dataset
bus,amap_stop_00127,BV09154883,福建海事局(公交站),119.289672,26.056912,119.28488360380244,26.060012181781943,728586.9773075061,2884332.871241773,350100010027;350100010028;350100010037;350100010077;350100010108;350100010127;350100010128;350100010176;350100010293;350100010294;350100010296;350100010299;350100010302;350100010303;350100010305;350100010345;350100010348;350100010351;350100010437;350100010438;350100010492;350100010493;350100010742;350100010743;900000028094;900000029831;900000045849;900000045850;900000107418;900000107419;900000126889;900000140680;900000186777;900000186795,AMap GCJ-02 converted to WGS84/EPSG:32650 in source final dataset
bus,amap_stop_00128,BV09155595,空港快线金山正祥站(公交站),119.267135,26.033076,119.26237131638987,26.03618319292965,726379.8526936173,2881653.3748315186,350100010729,AMap GCJ-02 converted to WGS84/EPSG:32650 in source final dataset
bus,amap_stop_00129,BV09159763,潘墩地铁站B口(公交站),119.356617,26.01981,119.35171260195357,26.022767325158128,735349.4561520307,2880325.013779816,350100010224;900000103911;900000140681,AMap GCJ-02 converted to WGS84/EPSG:32650 in source final dataset
bus,amap_stop_00130,BV09159764,盘屿(公交站),119.297913,25.997991,119.2931167227697,26.00103911850956,729525.7431141412,2877813.179126421,350100010087;350100010088;350100010429;350100010430;900000055347,AMap GCJ-02 converted to WGS84/EPSG:32650 in source final dataset
bus,amap_stop_00131,BV09159765,利嘉国际商业城12号馆(公交站),119.298568,25.997821,119.2937706866144,26.00086797127068,729591.5552114635,2877795.365869872,900000055347;900000055360,AMap GCJ-02 converted to WGS84/EPSG:32650 in source final dataset
bus,amap_stop_00132,BV09159959,荷泽(公交站),119.289253,26.063898,119.28446465710526,26.06700343631433,728531.4735048768,2885106.760991487,350100010011;350100010012;350100010023;350100010024;350100010037;350100010038;350100010077;350100010078;350100010157;350100010158;350100010228;350100010230;350100010238;350100010245;350100010254;350100010256;350100010356;350100010357;350100010376;350100010379;350100010742;350100010743;900000029831;900000029832;900000081248;900000081249;900000107418;900000107419,AMap GCJ-02 converted to WGS84/EPSG:32650 in source final dataset
bus,amap_stop_00133,BV09162124,县医院(公交站),119.160048,26.146272,119.15514899885645,26.14934367424569,715440.1305354967,2894009.125940469,350100010053;350100010054;350100010059;350100010060;350100010342;350100010731;350100010732;900000028084;900000028092;900000152292;900000181437;900000189727,AMap GCJ-02 converted to WGS84/EPSG:32650 in source final dataset
bus,amap_stop_00134,BV09163759,鼓山红光(公交站),119.354149,26.068233,119.3492448221468,26.071226992939856,735005.6774675654,2885689.993096032,350100010070;350100010091;350100010092;350100010310;350100010311;350100010318;350100010319;350100010501;350100010502;900000077842;900000077843,AMap GCJ-02 converted to WGS84/EPSG:32650 in source final dataset
bus,amap_stop_00135,BV09168410,招呼站(公交站),119.264235,26.01288,119.2594744423878,26.015975204568345,726128.6520515601,2879409.356943548,900000175769,AMap GCJ-02 converted to WGS84/EPSG:32650 in source final dataset
bus,amap_stop_00136,BV09250171,招呼站(公交站),119.351935,26.097061,119.3470322510265,26.10007778471605,734726.6543876226,2888882.73958596,900000146903;900000157130,AMap GCJ-02 converted to WGS84/EPSG:32650 in source final dataset
bus,amap_stop_00137,BV11394609,招呼站,119.492884,25.939162,119.48816378339716,25.942187004141555,749180.0671536323,2871649.337398065,900000031535;900000031544,AMap GCJ-02 converted to WGS84/EPSG:32650 in source final dataset
bus,amap_stop_00138,BV09529310,招呼站,119.078003,26.172855,119.07303955283965,26.175884248367467,707182.854879383,2896816.004425464,900000042908,AMap GCJ-02 converted to WGS84/EPSG:32650 in source final dataset
bus,amap_stop_00139,BV09470607,招呼站,119.178589,25.900004,119.17374715365094,25.902945634328034,717754.5181613705,2866740.8149733194,350100010762,AMap GCJ-02 converted to WGS84/EPSG:32650 in source final dataset
bus,amap_stop_00140,BV10563786,招呼站(公交站),119.182198,26.172855,119.17734310421478,26.17598470177929,717609.9432362354,2896997.826177094,350100010731;350100010732,AMap GCJ-02 converted to WGS84/EPSG:32650 in source final dataset
bus,amap_stop_00141,BV11453390,招呼站,119.536442,25.940761,119.53187871663587,25.943911758517267,753556.0091348503,2871924.44545469,900000031555,AMap GCJ-02 converted to WGS84/EPSG:32650 in source final dataset
bus,amap_stop_00142,BV09145511,招呼站,119.362829,25.884883,119.35792573532648,25.887739453281053,736241.088474201,2865374.976940105,900000028087,AMap GCJ-02 converted to WGS84/EPSG:32650 in source final dataset
bus,amap_stop_00143,BV10788690,招呼站,119.029866,26.209077,119.02500331387448,26.212218109872047,702317.9667591426,2900765.614384216,900000042908;900000192614;900000192615,AMap GCJ-02 converted to WGS84/EPSG:32650 in source final dataset
bus,amap_stop_00144,BV09169916,建中小区西门(公交站),119.252015,26.040922,119.2472554981338,26.044040105622976,724851.8386851547,2882497.747881551,350100010149;350100010150,AMap GCJ-02 converted to WGS84/EPSG:32650 in source final dataset
bus,amap_stop_00145,BV09169917,上雁(公交站),119.251983,26.037164,119.2472237787226,26.04027956695117,724855.8422974966,2882081.036604865,350100010149;350100010150,AMap GCJ-02 converted to WGS84/EPSG:32650 in source final dataset
bus,amap_stop_00146,BV09170440,福建理工大学鼓山校区(公交站),119.370219,26.084708,119.3652912915479,26.087689577820804,736578.317125031,2887543.151453979,350100010163;350100010164;350100010175;350100010176;350100010354;350100010355;350100010362;350100010363;350100010494;350100010512;350100010742,AMap GCJ-02 converted to WGS84/EPSG:32650 in source final dataset
bus,amap_stop_00147,BV09172305,象峰学校(公交站),119.328001,26.141088,119.32313896568652,26.14417717346171,732248.996322198,2893726.1436590515,350100010099;350100010100;350100010163;350100010164;350100010240;350100010246;350100010295;350100010296;350100010407;350100010408;350100010733;350100010734;900000029831;900000029832;900000046046;900000046047;900000071234;900000071235;900000077426;900000077427;900000082435;900000082436;900000097079;900000097080;900000192901,AMap GCJ-02 converted to WGS84/EPSG:32650 in source final dataset
bus,amap_stop_00148,BV09176516,地铁新店车辆基地(公交站),119.319878,26.14559,119.31503133577372,26.148697469723896,731429.264912274,2894212.531130678,900000204072;900000204073,AMap GCJ-02 converted to WGS84/EPSG:32650 in source final dataset
bus,amap_stop_00149,BV09178512,复园路南(公交站),119.314628,26.037285,119.3097994784846,26.040331083003345,731119.0985275196,2882196.149116854,350100010337;350100010338,AMap GCJ-02 converted to WGS84/EPSG:32650 in source final dataset
bus,amap_stop_00150,BV09178514,仓山红砖洋房(公交站),119.320474,26.039713,119.31563418266336,26.04274981315586,731698.3591819576,2882474.4997445373,350100010337;350100010338,AMap GCJ-02 converted to WGS84/EPSG:32650 in source final dataset
bus,amap_stop_00151,BV09179228,仓山区第六中心小学(公交站),119.2481,26.0575,119.24333898547178,26.060629323514394,724428.2201235415,2884329.0352667063,900000118761;900000118762;900000240972;900000240994,AMap GCJ-02 converted to WGS84/EPSG:32650 in source final dataset
bus,amap_stop_00152,BV09179229,金亭小区二期(公交站),119.245274,26.058178,119.24051234598872,26.061307452025016,724144.0566941621,2884399.3047065744,900000118761;900000118762;900000240972;900000240994,AMap GCJ-02 converted to WGS84/EPSG:32650 in source final dataset
bus,amap_stop_00153,BV09179230,金亭社区(公交站),119.24957,26.055408,119.24480931872525,26.058535968231656,724579.3559075559,2884099.6305828574,900000118761;900000118762;900000240972;900000240994,AMap GCJ-02 converted to WGS84/EPSG:32650 in source final dataset
bus,amap_stop_00154,BV09179716,省立医院(公交站),119.306921,26.086675,119.30210285576275,26.08976797622624,730251.9589406562,2887660.135456088,350100010025;350100010048;350100010081;350100010082;350100010109;350100010110;350100010151;350100010152;350100010173;350100010316;350100010335;350100010336;350100010354;350100010407;350100010408;350100010742;350100010743,AMap GCJ-02 converted to WGS84/EPSG:32650 in source final dataset
bus,amap_stop_00155,BV09180217,善化坊口(公交站),119.290567,26.084838,119.28577526215086,26.08795557409896,728621.8920609509,2887430.5434802924,350100010003;350100010013;350100010014;350100010038;350100010043;350100010044;350100010048;350100010109;350100010110;350100010113;350100010114;350100010157;350100010205;350100010220;350100010232;350100010235;350100010266;350100010316;350100010317;350100010354;350100010355;350100010742;350100010743;900000055195;900000107418;900000107419,AMap GCJ-02 converted to WGS84/EPSG:32650 in source final dataset
bus,amap_stop_00156,BV09180757,三坊七巷(双抛桥)(公交站),119.293776,26.08536,119.2889795655404,26.088473326721548,728941.4814435279,2887493.541665134,350100010037;350100010044;350100010110;350100010114;350100010135;350100010316;350100010317;350100010742;900000206825;900000208138,AMap GCJ-02 converted to WGS84/EPSG:32650 in source final dataset
bus,amap_stop_00157,BV09181118,金达路西(公交站),119.250507,26.052587,119.24574659595903,26.05571306022721,724678.5422911004,2883788.47590706,900000118761;900000118762,AMap GCJ-02 converted to WGS84/EPSG:32650 in source final dataset
bus,amap_stop_00158,BV09183316,益凤李厝(公交站),119.270022,26.123609,119.26524961340031,26.12677419963736,726493.3957830683,2891695.71304422,350100010622;350100010623;900000042976;900000043495,AMap GCJ-02 converted to WGS84/EPSG:32650 in source final dataset
bus,amap_stop_00159,BV09183970,会展中心地铁站(公交站),119.359936,26.028415,119.3550259567024,26.0313730024957,735663.9508352072,2881284.521128606,350100010337;900000029241;900000029242;900000205225;900000205226,AMap GCJ-02 converted to WGS84/EPSG:32650 in source final dataset
bus,amap_stop_00160,BV09183978,会展中心(公交站),119.359742,26.028495,119.35483223416556,26.03145335164109,735644.3978764946,2881293.073986498,350100010338,AMap GCJ-02 converted to WGS84/EPSG:32650 in source final dataset
bus,amap_stop_00161,BV09183984,会展中心地铁站A口(公交站),119.359248,26.03098,119.3543387721912,26.033940791697823,735590.0273984773,2881567.796099697,350100010005;350100010008;350100010337;350100010338,AMap GCJ-02 converted to WGS84/EPSG:32650 in source final dataset
bus,amap_stop_00162,BV09184613,福州英华职业学院(公交站),119.173405,26.137257,119.1685344370064,26.140348007439027,716795.2322631425,2893034.720772864,900000227849,AMap GCJ-02 converted to WGS84/EPSG:32650 in source final dataset
bus,amap_stop_00163,BV09184816,登云湖中央公园(公交站),119.348454,26.120151,119.34355540112526,26.12318880188546,734332.6895747597,2891437.2317807144,900000224763,AMap GCJ-02 converted to WGS84/EPSG:32650 in source final dataset
bus,amap_stop_00164,BV09185305,三角池地铁站(公交站),119.324453,26.090344,119.31960168278334,26.09340711377337,731995.5631792793,2888094.427071071,350100010021;350100010022;350100010025;350100010026;350100010093;350100010094;350100010110;350100010155;350100010156;350100010216;350100010221;350100010250;350100010289;350100010320;350100010321;350100010322;350100010323;350100010335;350100010336;350100010354;350100010355;350100010376;350100010379;350100010489;350100010490;350100010742;350100010743,AMap GCJ-02 converted to WGS84/EPSG:32650 in source final dataset
bus,amap_stop_00165,BV09188574,湖里路口(江滨东大道辅道)(公交站),119.42394,26.009605,119.41902111763396,26.012525606636054,742108.8818797256,2879313.330393406,900000206025,AMap GCJ-02 converted to WGS84/EPSG:32650 in source final dataset
bus,amap_stop_00166,BV09188575,开发区管委会站(江滨东大道辅道)(公交站),119.436897,25.999987,119.43200097447826,26.002917309749883,743428.2870816361,2878272.8194003226,900000206025,AMap GCJ-02 converted to WGS84/EPSG:32650 in source final dataset
bus,amap_stop_00167,BV09188576,开发区税务局站(江滨东大道辅道)(公交站),119.427803,26.006989,119.4228900430852,26.00991190785965,742501.6221439561,2879030.9015642544,900000206025,AMap GCJ-02 converted to WGS84/EPSG:32650 in source final dataset
bus,amap_stop_00168,BV09188577,马尾步行街(公交站),119.454384,25.986953,119.44953120108926,25.98990720501701,745210.6458451552,2876864.0197403743,350100010057;350100010058;350100010125;350100010126;350100010234;350100010251;350100010308;350100010309;350100010397;350100010398;350100010403;350100010404;350100010513;350100010514;350100010688;350100010689;350100010738;350100010739;900000076998;900000076999;900000079724;900000079725;900000079728;900000079729;900000080066;900000080067;900000082325;900000082326;900000125029;900000125030;900000144206;900000144207;900000146927;900000146928;900000161271;900000161600;900000161723;900000161724;900000186785;900000192611;900000194352;900000200434;900000200435;900000206025;900000220899;900000220911;900000226061;900000226062;900000228769;900000228770,AMap GCJ-02 converted to WGS84/EPSG:32650 in source final dataset
bus,amap_stop_00169,BV09188578,文化宫站(公交站),119.306706,26.057359,119.30189044117331,26.06043280926187,730288.1360194822,2884409.4212843934,350100010003;350100010004;350100010023;350100010024;350100010025;350100010041;350100010042;350100010089;350100010090;350100010135;350100010136;350100010326;350100010327;350100010349;350100010350;350100010405;350100010406;350100010407;350100010408;900000125708;900000125709;900000194352;900000206025,AMap GCJ-02 converted to WGS84/EPSG:32650 in source final dataset
bus,amap_stop_00170,BV09190424,火车南站西广场(公交站),119.388148,25.988057,119.38321367631453,25.990956685942106,738567.3923712291,2876857.496521872,350100010035;350100010238;350100010312;350100010398;350100010435;350100010502;350100010508;350100010690;350100010728;900000025642;900000122233;900000144828;900000170681,AMap GCJ-02 converted to WGS84/EPSG:32650 in source final dataset
bus,amap_stop_00171,BV09190425,火车南站东广场(公交站),119.390565,25.989112,119.38562976654644,25.992011085510065,738807.2044115938,2876978.7422830514,350100010035;350100010036;350100010238;350100010245;350100010312;350100010313;350100010325;350100010397;350100010398;350100010435;350100010436;350100010501;350100010502;350100010508;350100010510;350100010690;350100010691;350100010728;350100010729;900000025642;900000122233;900000122234;900000144827;900000144828;900000170681;900000170682,AMap GCJ-02 converted to WGS84/EPSG:32650 in source final dataset
bus,amap_stop_00172,BV09192986,仓山区实验中学金山分校(公交站),119.264498,26.036938,119.25973551457425,26.040049394034146,726108.6013946558,2882077.1681423816,900000081248;900000081249;900000175768;900000175769,AMap GCJ-02 converted to WGS84/EPSG:32650 in source final dataset
bus,amap_stop_00173,BV09197127,双湖三路西(公交站),119.337647,26.025137,119.33277523438854,26.028131286015928,733443.0098787856,2880885.324516054,350100010166,AMap GCJ-02 converted to WGS84/EPSG:32650 in source final dataset
bus,amap_stop_00174,BV09197128,双湖三路高坂路口(公交站),119.339884,26.025869,119.3350079889771,26.02885960774939,733665.0763122636,2880970.0207496374,350100010166,AMap GCJ-02 converted to WGS84/EPSG:32650 in source final dataset
bus,amap_stop_00175,BV09197644,永正大厦(公交站),119.358139,26.088063,119.35322708913267,26.091063766755283,735364.469145827,2887895.1510742404,350100010352;350100010353;900000227835;900000227837,AMap GCJ-02 converted to WGS84/EPSG:32650 in source final dataset
bus,amap_stop_00176,BV09199313,城锦公交车场站(公交站),119.368501,25.985165,119.36358285938894,25.98808150810557,736607.3520450735,2876503.215139177,350100010372;350100010374,AMap GCJ-02 converted to WGS84/EPSG:32650 in source final dataset
bus,amap_stop_00177,BV09200424,闽江游船码头(公交站),119.317408,26.053112,119.31257303548448,26.05616360795842,731365.6049855037,2883955.315464894,900000208138,AMap GCJ-02 converted to WGS84/EPSG:32650 in source final dataset
bus,amap_stop_00178,BV09200425,佛寺苑(公交站),119.311827,26.045323,119.30700308484572,26.048379625887986,730823.4227294715,2883082.973636838,900000208138,AMap GCJ-02 converted to WGS84/EPSG:32650 in source final dataset
bus,amap_stop_00179,BV09201999,新颐路金洲南路口(公交站),119.26623,26.040566,119.26146629792596,26.04367883432897,726274.8667900555,2882482.303995393,900000163808,AMap GCJ-02 converted to WGS84/EPSG:32650 in source final dataset
bus,amap_stop_00180,BV09202000,东林支巷(公交站),119.268509,26.044146,119.26374360917391,26.04725975458604,726495.9137413721,2882883.0163833858,900000163807;900000163808,AMap GCJ-02 converted to WGS84/EPSG:32650 in source final dataset
bus,amap_stop_00181,BV09204015,大数据科技园(公交站),119.250107,26.115748,119.24534185322288,26.11891584896013,724517.2974010468,2890790.4920384963,900000193359;900000193360;900000208430;900000208431,AMap GCJ-02 converted to WGS84/EPSG:32650 in source final dataset
bus,amap_stop_00182,BV09210377,公园道1号(公交站),119.246081,26.030955,119.2413215783318,26.03406620454173,724276.9121462608,2881382.452759865,900000254749;900000254751,AMap GCJ-02 converted to WGS84/EPSG:32650 in source final dataset
bus,amap_stop_00183,BV09212358,高湖(公交站),119.335008,26.034949,119.33014049722568,26.03795491229401,733159.8202585779,2881969.078910372,350100010009;350100010010;350100010031;350100010083;350100010084;350100010166;350100010231;350100010236;350100010314;350100010316;350100010322;350100010323;350100010439;900000175764,AMap GCJ-02 converted to WGS84/EPSG:32650 in source final dataset
bus,amap_stop_00184,BV09215469,马尾海关(渔人广场)(公交站),119.468218,25.993532,119.46340662341495,25.996524033542848,746586.3520970708,2877623.3334133537,350100010057,AMap GCJ-02 converted to WGS84/EPSG:32650 in source final dataset
bus,amap_stop_00185,BV09218870,义序公交综合车场(公交站),119.32408,26.007342,119.3192356656268,26.010349989602684,732122.6360916765,2878890.9951269818,350100010179;350100010180;350100010314;350100010315;900000103910;900000103911,AMap GCJ-02 converted to WGS84/EPSG:32650 in source final dataset
bus,amap_stop_00186,BV09219351,仓山区实验中学(公交站),119.253054,26.036276,119.24829481249029,26.03939085256517,724964.7404198553,2881984.416881054,350100010495;350100010496;900000174899;900000174900;900000175768;900000175769;900000215287;900000215288,AMap GCJ-02 converted to WGS84/EPSG:32650 in source final dataset
bus,amap_stop_00187,BV09219846,双浦头(公交站),119.29779,26.062743,119.29298906568236,26.065835169823348,729386.7900235296,2884992.29914188,350100010018;350100010023;350100010024;350100010031;350100010032;350100010061;350100010062;350100010089;350100010090;350100010101;350100010102;350100010111;350100010112;350100010127;350100010128;350100010175;350100010176;350100010179;350100010180;350100010213;350100010217;350100010262;350100010278;350100010279;350100010293;350100010294;350100010318;350100010319;350100010320;350100010321;350100010345;350100010346;350100010347;350100010348;350100010376;350100010379;350100010405;350100010406;350100010492;350100010494,AMap GCJ-02 converted to WGS84/EPSG:32650 in source final dataset
bus,amap_stop_00188,BV09219847;BV09535501,金垱(公交站),119.312889,26.066034,119.30806156105255,26.06910261373786,730888.7077096216,2885380.95848404,350100010018;350100010019;350100010020;350100010065;350100010066;350100010067;350100010068;350100010079;350100010080;350100010117;350100010118;350100010149;350100010150;350100010153;350100010154;350100010175;350100010176;350100010262;350100010270;350100010271;350100010272;350100010273;350100010316;350100010317;350100010320;350100010321;350100010347;350100010348;350100010376;350100010379;350100010407;350100010408;900000000888;900000000889;900000254748;900000254750,AMap GCJ-02 converted to WGS84/EPSG:32650 in source final dataset
bus,amap_stop_00189,BV09220995,明德路东(公交站),119.216058,26.047644,119.21127275742678,26.05074601173214,721237.8295146686,2883179.177249635,900000076014,AMap GCJ-02 converted to WGS84/EPSG:32650 in source final dataset
bus,amap_stop_00190,BV09220996,高新区第二实验小学(公交站),119.231495,26.015025,119.22672908538983,26.01811938842384,722846.4085008089,2879590.6017287774,900000076013;900000076014,AMap GCJ-02 converted to WGS84/EPSG:32650 in source final dataset
bus,amap_stop_00191,BV09222164,前屿地铁站(公交站),119.351002,26.073753,119.34610258019542,26.07675595085002,734680.204073397,2886296.948135847,350100010070;350100010502;900000046046,AMap GCJ-02 converted to WGS84/EPSG:32650 in source final dataset
bus,amap_stop_00192,BV09223762,瀛福路东(公交站),119.329671,26.057465,119.32481205743836,26.06049625594528,732581.9333467671,2884457.16271433,350100010154,AMap GCJ-02 converted to WGS84/EPSG:32650 in source final dataset
bus,amap_stop_00193,BV09223764,瀛洲红星(公交站),119.326094,26.057429,119.32124198891393,26.06046706701229,732224.7084830736,2884447.56110878,350100010153;350100010154,AMap GCJ-02 converted to WGS84/EPSG:32650 in source final dataset
bus,amap_stop_00194,BV09223767,瀛江路(公交站),119.324794,26.056619,119.31994456876826,26.059659004035428,732096.4599351858,2884355.715528593,350100010153;350100010154,AMap GCJ-02 converted to WGS84/EPSG:32650 in source final dataset
bus,amap_stop_00195,BV09225173,福州华光大帝庙(公交站),119.31827,26.023993,119.31343558633051,26.027023305969305,731509.1953954581,2880728.0959961363,350100010041;350100010042;350100010073;350100010074;350100010135;350100010136;350100010254;350100010256;350100010272;350100010273,AMap GCJ-02 converted to WGS84/EPSG:32650 in source final dataset
bus,amap_stop_00196,BV09225507,福建商贸学校(公交站),119.313615,26.030317,119.30878889725946,26.033360222216555,731031.614737723,2881421.987615792,350100010041;350100010042;350100010073;350100010074;350100010135;350100010136;350100010179;350100010180;350100010254;350100010256;350100010272;350100010273;350100010362;350100010363;350100010508;350100010510;900000062588;900000062593;900000139516;900000139517;900000153779;900000153780;900000166947;900000166948;900000167357;900000167358,AMap GCJ-02 converted to WGS84/EPSG:32650 in source final dataset
bus,amap_stop_00197,BV09225777,杨周路洪湾南路口(公交站),119.260445,26.020011,119.25568552905,26.023112853826508,725735.670267546,2880193.629104308,350100010016;350100010235;900000066437,AMap GCJ-02 converted to WGS84/EPSG:32650 in source final dataset
bus,amap_stop_00198,BV09232686,南园路(公交站),119.305595,26.047661,119.30078212526296,26.05073020173672,730196.1922197768,2883332.416424271,900000185187,AMap GCJ-02 converted to WGS84/EPSG:32650 in source final dataset
bus,amap_stop_00199,BV09236427,检察官学院(公交站),119.332642,26.147283,119.32777052517766,26.15036722425578,732699.89323185,2894420.3032716843,900000097080,AMap GCJ-02 converted to WGS84/EPSG:32650 in source final dataset
bus,amap_stop_00200,BV09236812,船政路西(公交站),119.392278,26.027137,119.38733944624607,26.030061186398523,738901.3240180938,2881197.9510262394,900000079724;900000079725;900000079728;900000079729,AMap GCJ-02 converted to WGS84/EPSG:32650 in source final dataset
bus,amap_stop_00201,BV09236859,闽越水镇东(公交站),119.12554,26.127088,119.12058476317942,26.13009482604616,712018.7166311735,2891819.635373911,900000195944;900000195945,AMap GCJ-02 converted to WGS84/EPSG:32650 in source final dataset
bus,amap_stop_00202,BV09237813,白湖亭地铁站D口(公交站),119.337487,26.025088,119.33261553974742,26.02808255292332,733427.120136589,2880879.639081163,350100010009;350100010032;350100010084;350100010165;350100010231;350100010312;350100010317;350100010440;900000175765,AMap GCJ-02 converted to WGS84/EPSG:32650 in source final dataset
bus,amap_stop_00203,BV09241379,江南水都小学橘园洲校区(公交站),119.245518,26.048667,119.2407571194762,26.05179009477731,724186.6761660846,2883345.2318037814,350100010071;350100010072;350100010504;350100010505;350100010628;350100010629;900000146909;900000146910,AMap GCJ-02 converted to WGS84/EPSG:32650 in source final dataset
bus,amap_stop_00204,BV09241380,城门过洲(公交站),119.371568,25.980378,119.36664673764488,25.983287440774767,736923.7899339269,2875977.575380359,350100010193;350100010198,AMap GCJ-02 converted to WGS84/EPSG:32650 in source final dataset
bus,amap_stop_00205,BV09241381,金山地铁站D口(公交站),119.263992,26.047533,119.25922897803645,26.05065182653913,726037.5519832848,2883251.0145850545,350100010027;350100010028;350100010046;350100010071;350100010072;350100010099;350100010100;350100010111;350100010112;350100010145;350100010146;350100010149;350100010150;350100010228;350100010230;350100010232;350100010235;350100010239;350100010247;350100010258;350100010259;350100010304;350100010305;350100010331;350100010332;350100010345;350100010346;350100010354;350100010380;350100010508;350100010510;900000169184;900000169185;900000183431;900000183432,AMap GCJ-02 converted to WGS84/EPSG:32650 in source final dataset
bus,amap_stop_00206,BV09241382,桔园洲地铁站(公交站),119.243085,26.046925,119.23832350570576,26.050046419426685,723946.4338744651,2883147.855043088,350100010504;350100010505;900000037276;900000037277;900000118761;900000118762;900000220797;900000220798;900000254749;900000254751,AMap GCJ-02 converted to WGS84/EPSG:32650 in source final dataset
bus,amap_stop_00207,BV09245394,佳馨苑(公交站),119.329009,26.085099,119.32414924994832,26.08814994733205,732460.940680671,2887520.0400741864,350100010272;350100010273,AMap GCJ-02 converted to WGS84/EPSG:32650 in source final dataset
bus,amap_stop_00208,BV09247428,丰洲巷口(公交站),119.330879,26.083438,119.32601575946956,26.0864842761342,732650.9884749833,2887338.815889474,350100010272;350100010273,AMap GCJ-02 converted to WGS84/EPSG:32650 in source final dataset
bus,amap_stop_00209,BV09250170,朝元桥北(公交站),119.260046,26.018188,119.25528680207483,26.02128877266698,725699.24719859,2879990.836345408,900000175768;900000175769,AMap GCJ-02 converted to WGS84/EPSG:32650 in source final dataset
bus,amap_stop_00210,BV09252611,锦祥佳园(公交站),119.280269,26.062413,119.27549185466737,26.065528465489187,727636.420525552,2884927.6269826507,900000028090;900000028094,AMap GCJ-02 converted to WGS84/EPSG:32650 in source final dataset
bus,amap_stop_00211,BV09253345,阵坂地铁站(公交站),119.251639,26.06534,119.24687767669984,26.06847455968752,724767.364997105,2885204.36579436,350100010197,AMap GCJ-02 converted to WGS84/EPSG:32650 in source final dataset
bus,amap_stop_00212,BV09361091,临时站,119.530511,26.054376,119.52591982373976,26.057588799087032,752715.406211812,2884509.5111352056,900000031535,AMap GCJ-02 converted to WGS84/EPSG:32650 in source final dataset
bus,amap_stop_00213,BV09284301,临时站(公交站),119.455805,25.989148,119.4509560285382,25.992106856325783,745348.760379622,2877110.430793694,900000186785;900000192611;900000194352;900000220899;900000220911,AMap GCJ-02 converted to WGS84/EPSG:32650 in source final dataset
bus,amap_stop_00214,BV09537300,临时站,119.58395,25.950171,119.5794949483129,25.95340495317348,758305.8024439176,2873069.567963997,900000031555,AMap GCJ-02 converted to WGS84/EPSG:32650 in source final dataset
bus,amap_stop_00215,BV09411376,临时站,119.063645,26.196181,119.05870014111554,26.19924184377293,705708.318554624,2899380.9943008595,900000192614;900000192615,AMap GCJ-02 converted to WGS84/EPSG:32650 in source final dataset
bus,amap_stop_00216,BV09406051,临时站(公交站),119.159721,26.145284,119.15482141091832,26.14835445186994,715409.1910147759,2893898.982597668,900000189727,AMap GCJ-02 converted to WGS84/EPSG:32650 in source final dataset
bus,amap_stop_00217,BV09255404,临时站(公交站),119.240349,26.042253,119.2355867311218,26.04537043648968,723681.412160669,2882625.073496356,900000118761,AMap GCJ-02 converted to WGS84/EPSG:32650 in source final dataset
bus,amap_stop_00218,BV09410003,临时站(公交站),119.380095,26.014633,119.37516329606736,26.017556845734145,737707.6363325256,2879790.188675817,900000215327,AMap GCJ-02 converted to WGS84/EPSG:32650 in source final dataset
bus,amap_stop_00219,BV09325770,临时站,119.093695,26.154905,119.08872243306402,26.157914494818588,708782.6727700562,2894850.236760123,900000181437,AMap GCJ-02 converted to WGS84/EPSG:32650 in source final dataset
bus,amap_stop_00220,BV09415374,临时站(公交站),119.202062,26.115405,119.19724980055464,26.11853266001344,719707.7011565223,2890665.8947891216,350100010054;900000043495,AMap GCJ-02 converted to WGS84/EPSG:32650 in source final dataset
bus,amap_stop_00221,BV09361089,临时站,119.205967,26.090799,119.20116328827272,26.093916442795816,720145.2673630485,2887945.1402561995,900000169358,AMap GCJ-02 converted to WGS84/EPSG:32650 in source final dataset
bus,amap_stop_00222,BV09422995,临时站(公交站),119.211399,26.121662,119.20660154460684,26.124807113627725,720631.2929236582,2891376.913509334,350100010053;900000048928,AMap GCJ-02 converted to WGS84/EPSG:32650 in source final dataset
bus,amap_stop_00223,BV09389142,临时站(公交站),119.297669,26.036751,119.29287020748656,26.039825853386088,729425.5737873482,2882110.2745820023,350100010357,AMap GCJ-02 converted to WGS84/EPSG:32650 in source final dataset
bus,amap_stop_00224,BV09389952,临时站(公交站),119.155963,26.135575,119.15105662529088,26.13863248899441,715050.5576060137,2892815.610772588,900000181437;900000181438;900000189726,AMap GCJ-02 converted to WGS84/EPSG:32650 in source final dataset
bus,amap_stop_00225,BV09364722,临时站,119.153653,25.86752,119.1487623685844,25.870393780537885,715310.0174071967,2863093.1047141594,900000035847,AMap GCJ-02 converted to WGS84/EPSG:32650 in source final dataset
bus,amap_stop_00226,BV09532758,临时站,119.588876,26.00094,119.58442270309612,26.00421105166558,758688.1498120413,2878709.301175588,900000031568,AMap GCJ-02 converted to WGS84/EPSG:32650 in source final dataset
bus,amap_stop_00227,BV09395706,临时站(公交站),119.328553,26.121698,119.32369136413,26.124773733012063,732342.6674627035,2891577.1936150896,350100010517;900000097079,AMap GCJ-02 converted to WGS84/EPSG:32650 in source final dataset
bus,amap_stop_00228,BV09255557,融信·上江城站(公交站),119.464567,25.965059,119.45974608033252,25.968022273126973,746279.2280101746,2874458.239121436,900000031555,AMap GCJ-02 converted to WGS84/EPSG:32650 in source final dataset
bus,amap_stop_00229,BV09257131,郭宅博物馆(公交站),119.33312,26.016765,119.32825748325529,26.01976215163901,733007.3020133242,2879949.94208056,350100010429;350100010430;900000103910;900000103911,AMap GCJ-02 converted to WGS84/EPSG:32650 in source final dataset
bus,amap_stop_00230,BV09257132,程池(公交站),119.330888,26.014344,119.32602996186526,26.0173437568648,732789.0748345696,2879678.00713948,350100010087;350100010088;350100010314;350100010315;350100010429;350100010430;900000103910;900000103911,AMap GCJ-02 converted to WGS84/EPSG:32650 in source final dataset
bus,amap_stop_00231,BV09257133,跃进村委(公交站),119.332157,26.018498,119.3272962030383,26.021498163062105,732907.6367698754,2880140.577064478,350100010429;350100010430,AMap GCJ-02 converted to WGS84/EPSG:32650 in source final dataset
bus,amap_stop_00232,BV09257134,超功路(公交站),119.329302,26.01451,119.3244470136776,26.017512898600124,732630.2658262078,2879693.925447504,350100010087;350100010430;900000103911,AMap GCJ-02 converted to WGS84/EPSG:32650 in source final dataset
bus,amap_stop_00233,BV09258256,融创福州府A区(公交站),119.331844,26.015839,119.3269840062286,26.018837950899872,732881.6370059354,2879845.2668103846,350100010087;350100010088;350100010314;350100010315,AMap GCJ-02 converted to WGS84/EPSG:32650 in source final dataset
bus,amap_stop_00234,BV09265687,水质监测公司(公交站),119.263141,26.015281,119.25838078889534,26.01837841202057,726014.5577822155,2879673.731342912,900000175768;900000175769,AMap GCJ-02 converted to WGS84/EPSG:32650 in source final dataset
bus,amap_stop_00235,BV09268191,三英花园(公交站),119.147165,26.144106,119.1422412545138,26.14715371156701,714153.4323006059,2893745.1498484146,900000189726;900000189727,AMap GCJ-02 converted to WGS84/EPSG:32650 in source final dataset
bus,amap_stop_00236,BV09268192,滨城民俗路口(公交站),119.156085,26.133026,119.15117906005752,26.13608208320353,715067.4772911158,2892533.2439991003,350100010393;350100010396;350100010399;350100010586;350100010587;350100010731;350100010732;900000028084;900000028092;900000069610;900000069611;900000088960;900000088961;900000144210;900000144211;900000146905;900000146906;900000160846;900000160847;900000160848;900000160849;900000189726;900000189727;900000227838;900000227841;900000242915;900000242916,AMap GCJ-02 converted to WGS84/EPSG:32650 in source final dataset
bus,amap_stop_00237,BV09268323,滨江实小分校(公交站),119.157536,26.137549,119.15263260151436,26.140610576388013,715204.5312333854,2893037.3798113177,900000189726,AMap GCJ-02 converted to WGS84/EPSG:32650 in source final dataset
bus,amap_stop_00238,BV09268976,锦颐大酒店(公交站),119.312279,26.067665,119.3074525689561,26.07073581276557,730824.5618967039,2885560.838098575,350100010413,AMap GCJ-02 converted to WGS84/EPSG:32650 in source final dataset
bus,amap_stop_00239,BV09269404,双下路首凤山庙(招呼站)(公交站),119.27806,26.064492,119.27328502541988,26.067611193711286,727411.5559913783,2885154.536367888,350100010158;900000028094,AMap GCJ-02 converted to WGS84/EPSG:32650 in source final dataset
bus,amap_stop_00240,BV09271613,杨周金榕路口(公交站),119.282353,26.031585,119.27757581598864,26.034677337677405,727904.6689051163,2881513.008578832,900000029241;900000029242,AMap GCJ-02 converted to WGS84/EPSG:32650 in source final dataset
bus,amap_stop_00241,BV09273195,连洋西路(招呼站)(公交站),119.342425,26.066615,119.33754121446944,26.06962839362607,733837.687339646,2885491.801845581,900000145293,AMap GCJ-02 converted to WGS84/EPSG:32650 in source final dataset
bus,amap_stop_00242,BV09273327,融侨锦江(公交站),119.270707,26.06536,119.26593846585108,26.06848639476901,726674.7082555696,2885238.7034945823,350100010050;900000146201,AMap GCJ-02 converted to WGS84/EPSG:32650 in source final dataset
bus,amap_stop_00243,BV09274187,金港湾实验学校北门(公交站),119.283446,26.035642,119.27866722677294,26.038735803476943,728006.061977554,2881964.5879009813,900000128846,AMap GCJ-02 converted to WGS84/EPSG:32650 in source final dataset
bus,amap_stop_00244,BV09275326,清华附中小学二部(公交站),119.390712,26.002595,119.38577569833684,26.00550320939661,738794.5143706829,2878473.979585093,900000208818;900000215327,AMap GCJ-02 converted to WGS84/EPSG:32650 in source final dataset
bus,amap_stop_00245,BV09275329,樟岚地铁站(公交站),119.390457,26.00527,119.3855205677189,26.00818015925315,738763.5507490837,2878770.127795628,900000208818;900000215327,AMap GCJ-02 converted to WGS84/EPSG:32650 in source final dataset
bus,amap_stop_00246,BV09278882,铁岭中路(公交站),119.180472,26.14675,119.17561550391376,26.14986029186249,717485.7154184963,2894100.468069411,350100010342,AMap GCJ-02 converted to WGS84/EPSG:32650 in source final dataset
bus,amap_stop_00247,BV09280536,梁厝地铁站E口站(公交站),119.417246,25.992423,119.41232029698465,25.99532639482307,741473.1810652161,2877395.165842726,900000097471;900000097472;900000122233;900000122234,AMap GCJ-02 converted to WGS84/EPSG:32650 in source final dataset
bus,amap_stop_00248,BV09282612,闽侯县医院西门(公交站),119.159762,26.145059,119.15486251105172,26.148129385123703,715413.714325618,2893874.114657084,900000181437;900000181438;900000189726,AMap GCJ-02 converted to WGS84/EPSG:32650 in source final dataset
bus,amap_stop_00249,BV09290901,万仁(公交站),119.389762,26.008374,119.38482554582669,26.01128663264297,738687.6756425719,2879113.064227828,350100010280;900000208818,AMap GCJ-02 converted to WGS84/EPSG:32650 in source final dataset
bus,amap_stop_00250,BV09310135,万仁(公交站),119.39052,26.007889,119.38558334992128,26.010800912143743,738764.5316730007,2879060.630762929,350100010328,AMap GCJ-02 converted to WGS84/EPSG:32650 in source final dataset
bus,amap_stop_00251,BV09292150,龙胜路(公交站),119.423675,25.977957,119.41875815791272,25.98085576638693,742147.5257693508,2875803.671346377,900000042667,AMap GCJ-02 converted to WGS84/EPSG:32650 in source final dataset
bus,amap_stop_00252,BV09294467,东斗(公交站),119.298631,26.02013,119.2938319142566,26.023192065873783,729554.2334886137,2880268.957937714,900000182671;900000182672,AMap GCJ-02 converted to WGS84/EPSG:32650 in source final dataset
bus,amap_stop_00253,BV09297560,上柳路北(公交站),119.318984,26.143531,119.31413920538468,26.146638853143177,731344.1126252916,2893982.843971268,350100010099;350100010100;350100010232;350100010235;350100010407;350100010408;350100010522;350100010523;900000172638;900000172639,AMap GCJ-02 converted to WGS84/EPSG:32650 in source final dataset
bus,amap_stop_00254,BV09299142,坑口(浅水湾)(公交站),119.514266,26.032375,119.50961876575056,26.03552747111265,751130.9049336908,2882033.3777710875,900000031552,AMap GCJ-02 converted to WGS84/EPSG:32650 in source final dataset
bus,amap_stop_00255,BV09299467,桂山(公交站),119.330295,26.115256,119.3254304798138,26.11832424318421,732529.3948233478,2890865.687836181,900000071085;900000221801,AMap GCJ-02 converted to WGS84/EPSG:32650 in source final dataset
bus,amap_stop_00256,BV09299468,彭岐(公交站),119.387189,26.009923,119.3822534147694,26.012838184102023,738427.0126667826,2879280.2800558275,350100010280;900000208818,AMap GCJ-02 converted to WGS84/EPSG:32650 in source final dataset
bus,amap_stop_00257,BV09310136,彭岐(公交站),119.388396,26.009204,119.38345996900117,26.012117959535058,738549.2701705934,2879202.681480012,350100010328,AMap GCJ-02 converted to WGS84/EPSG:32650 in source final dataset
bus,amap_stop_00258,BV09301134,境下(公交站),119.329481,26.11574,119.32461801789243,26.118810111452014,732447.1638140494,2890918.070273066,350100010221;350100010519,AMap GCJ-02 converted to WGS84/EPSG:32650 in source final dataset
bus,amap_stop_00259,BV09303467,省妇产医院北门(招呼站)(公交站),119.313509,26.141702,119.30867470226674,26.14481885564068,730801.2273875489,2893771.465780373,350100010523,AMap GCJ-02 converted to WGS84/EPSG:32650 in source final dataset
bus,amap_stop_00260,BV09303590,厦坊路北(公交站),119.311859,26.141914,119.307027748576,26.14503399079401,730636.1012748566,2893792.3781230515,350100010522;350100010523;900000079599;900000133373,AMap GCJ-02 converted to WGS84/EPSG:32650 in source final dataset
bus,amap_stop_00261,BV09303593,坂中村(公交站),119.312077,26.14434,119.3072451627378,26.147461128763783,730653.0688401386,2894061.6940167868,350100010523,AMap GCJ-02 converted to WGS84/EPSG:32650 in source final dataset
bus,amap_stop_00262,BV09303594,汤斜(公交站),119.320182,26.15057,119.31533437520892,26.15368002685762,731449.7311992147,2894765.146842381,350100010523,AMap GCJ-02 converted to WGS84/EPSG:32650 in source final dataset
bus,amap_stop_00263,BV09307412,孟超肝胆医院西洪院区(公交站),119.2808,26.084412,119.2760206242959,26.08754153505079,727646.7231136704,2887367.573775981,350100010071;350100010098;350100010113,AMap GCJ-02 converted to WGS84/EPSG:32650 in source final dataset
bus,amap_stop_00264,BV09310173,佛亭前(公交站),119.380336,26.015005,119.37540408838876,26.017928882645947,737730.9934081462,2879831.850091022,900000208818,AMap GCJ-02 converted to WGS84/EPSG:32650 in source final dataset
bus,amap_stop_00265,BV09320912,孟超肝胆医院金山院区(临时站)(公交站),119.244617,26.059621,119.2398550546516,26.06275130105243,724075.5306070881,2884558.1483331835,900000118769,AMap GCJ-02 converted to WGS84/EPSG:32650 in source final dataset
bus,amap_stop_00266,BV09321186,郭宅中心小学(公交站),119.337653,26.018404,119.33278173201124,26.0213936998306,733457.0038006715,2880138.805428329,900000103911,AMap GCJ-02 converted to WGS84/EPSG:32650 in source final dataset
bus,amap_stop_00267,BV09322086,郭宅路东(公交站),119.339862,26.018501,119.33498658712942,26.021486642694875,733677.5497480413,2880153.050307006,900000103910,AMap GCJ-02 converted to WGS84/EPSG:32650 in source final dataset
bus,amap_stop_00268,BV09322087,七星桥(公交站),119.334784,26.018758,119.32991814787616,26.02175334907729,733169.616644392,2880173.534555541,900000103910;900000103911,AMap GCJ-02 converted to WGS84/EPSG:32650 in source final dataset
bus,amap_stop_00269,BV09323241,福州六中(公交站),119.344155,26.024162,119.33927128751658,26.02714361356136,734095.2610823852,2880787.5299885846,350100010083;350100010439;350100010502;900000055360,AMap GCJ-02 converted to WGS84/EPSG:32650 in source final dataset
bus,amap_stop_00270,BV09323353,福州大学软件校区(公交站),119.262023,26.107713,119.25725637463582,26.110872773482622,725724.5010366255,2889919.9571471745,900000146909,AMap GCJ-02 converted to WGS84/EPSG:32650 in source final dataset
bus,amap_stop_00271,BV09323944,晋安榕博小学(东区)(公交站),119.349552,26.089598,119.34465383407893,26.09261394790136,734503.6022505192,2888051.440061282,900000219138;900000219144;900000219146;900000219148,AMap GCJ-02 converted to WGS84/EPSG:32650 in source final dataset
bus,amap_stop_00272,BV09326648,乌山北门(临时站)(公交站),119.29576,26.076882,119.29096118792668,26.079986736727328,729156.2871156147,2886556.716970724,900000107418,AMap GCJ-02 converted to WGS84/EPSG:32650 in source final dataset
bus,amap_stop_00273,BV09328132,市第八医院(招呼站)(公交站),119.323288,26.108035,119.31843760088132,26.111111929457515,731844.1536654155,2890054.067637995,350100010221,AMap GCJ-02 converted to WGS84/EPSG:32650 in source final dataset
bus,amap_stop_00274,BV09330463,地铁塔前车辆基地(临时站)(公交站),119.211279,26.121586,119.20648136988828,26.124730906434227,720619.4166101188,2891368.266113742,900000048929,AMap GCJ-02 converted to WGS84/EPSG:32650 in source final dataset
bus,amap_stop_00275,BV09334654,精品梅园国际(公交站),119.353012,26.060383,119.34811026322352,26.06337362364168,734907.8226117585,2884817.7758912607,350100010413,AMap GCJ-02 converted to WGS84/EPSG:32650 in source final dataset
bus,amap_stop_00276,BV09338690,湖塘路东(公交站),119.359245,26.085994,119.35433159420198,26.088991688136822,735479.1289752234,2887667.556703597,900000227835;900000227837,AMap GCJ-02 converted to WGS84/EPSG:32650 in source final dataset
bus,amap_stop_00277,BV09338847,红光路东(公交站),119.360927,26.073901,119.35601206681294,26.07688811565641,735671.5278144039,2886329.48819107,900000220510;900000220513,AMap GCJ-02 converted to WGS84/EPSG:32650 in source final dataset
bus,amap_stop_00278,BV09339835,涧田路玄南岭路口(公交站),119.327448,26.119056,119.32258870606206,26.122132140961263,732237.6040407914,2891282.5305754505,350100010516;350100010517;900000097080,AMap GCJ-02 converted to WGS84/EPSG:32650 in source final dataset
bus,amap_stop_00279,BV09342432,三保站(公交站),119.301854,26.048649,119.29704747090167,26.05172516619247,729820.4692576549,2883436.0680513484,900000083060,AMap GCJ-02 converted to WGS84/EPSG:32650 in source final dataset
bus,amap_stop_00280,BV09342433,闽都创新实验室站(公交站),119.221789,26.02552,119.21701265790934,26.02861332371132,721853.9590317936,2880736.726774048,900000184401;900000184402;900000189142;900000189143,AMap GCJ-02 converted to WGS84/EPSG:32650 in source final dataset
bus,amap_stop_00281,BV09344777,苏宁广场(公交站),119.289383,26.061471,119.28459466055132,26.06457463424164,728549.2004394874,2884837.879919992,900000055195;900000071088;900000186777;900000186795;900000228016;900000228019,AMap GCJ-02 converted to WGS84/EPSG:32650 in source final dataset
bus,amap_stop_00282,BV09344989,电信培训中心(公交站),119.343635,26.027861,119.33875194732862,26.03084606725603,734035.9193997183,2881196.834707293,350100010617;350100010618,AMap GCJ-02 converted to WGS84/EPSG:32650 in source final dataset
bus,amap_stop_00283,BV09345524,招手即停(联建路)(公交站),119.286456,26.030233,119.28167389530704,26.033319424319245,728317.5066859205,2881369.721031084,900000128846;900000128847,AMap GCJ-02 converted to WGS84/EPSG:32650 in source final dataset
bus,amap_stop_00284,BV09354249,招手即停(智能产业园D区)(公交站),119.233849,26.060545,119.22908149733956,26.063671666019065,722995.660881241,2884641.639055886,900000215288,AMap GCJ-02 converted to WGS84/EPSG:32650 in source final dataset
bus,amap_stop_00285,BV09354476,招手即停(燕前路)(公交站),119.263702,26.01249,119.25894173337753,26.01558522385337,726076.0689109614,2879365.225303874,900000175768,AMap GCJ-02 converted to WGS84/EPSG:32650 in source final dataset
bus,amap_stop_00286,BV09357177,亚峰社区(公交站),119.342492,26.059341,119.337608643182,26.062349399617577,733858.9018894036,2884685.398144976,900000145294,AMap GCJ-02 converted to WGS84/EPSG:32650 in source final dataset
bus,amap_stop_00287,BV09357178,招手即停(连洋西路)(公交站),119.34191,26.067123,119.33702711985195,26.0701376774408,733785.2297814516,2885547.3085682443,900000145294,AMap GCJ-02 converted to WGS84/EPSG:32650 in source final dataset
bus,amap_stop_00288,BV09358871,上渡滨洲(公交站),119.29301,26.040346,119.28821807689312,26.043430312188647,728952.9202341462,2882501.468429252,350100010105;350100010106,AMap GCJ-02 converted to WGS84/EPSG:32650 in source final dataset
bus,amap_stop_00289,BV09360279,秀山中学东门(招呼站)(公交站),119.322713,26.145656,119.31786086767409,26.14875814512149,731712.1028729167,2894224.2984377635,350100010519,AMap GCJ-02 converted to WGS84/EPSG:32650 in source final dataset
bus,amap_stop_00290,BV09361531,福建开放大学(桂山校区)(公交站),119.330327,26.115289,119.32546241544976,26.118357203454835,732532.5239915901,2890869.397000344,350100010518,AMap GCJ-02 converted to WGS84/EPSG:32650 in source final dataset
bus,amap_stop_00291,BV09361532,火车站北广场(东侧候车处)(公交站),119.319891,26.115538,119.31504658213474,26.118626237313485,731490.1212193739,2890880.6220574025,900000169358,AMap GCJ-02 converted to WGS84/EPSG:32650 in source final dataset
bus,amap_stop_00292,BV09361536,福建开放大学桂山校区(公交站),119.330345,26.115295,119.32548038019767,26.11836317297105,732534.3091439678,2890870.0905586937,350100010216;350100010221;350100010519;900000224203;900000224206,AMap GCJ-02 converted to WGS84/EPSG:32650 in source final dataset
bus,amap_stop_00293,BV09361614,罗汉山隧道西(公交站),119.312496,26.121515,119.30766510941066,26.12462080989861,730739.9890974087,2891531.706635128,350100010043;350100010044;350100010073;350100010074;350100010113;350100010114;350100010427;350100010428;350100010518;350100010519;900000042976;900000043495;900000082435;900000082436;900000121692;900000122166;900000169358;900000169359,AMap GCJ-02 converted to WGS84/EPSG:32650 in source final dataset
bus,amap_stop_00294,BV09361665,省妇产医院北门(公交站),119.313482,26.141831,119.30864774289252,26.14494798660754,730798.2771489465,2893785.725762927,350100010522,AMap GCJ-02 converted to WGS84/EPSG:32650 in source final dataset
bus,amap_stop_00295,BV09361754,火车站南广场(站西路)(公交站),119.316694,26.112506,119.31185591304325,26.11559826030313,731176.9300198605,2890539.4427170227,350100010073;350100010332,AMap GCJ-02 converted to WGS84/EPSG:32650 in source final dataset
bus,amap_stop_00296,BV09361766,火车站北广场(东侧候车区)(公交站),119.319646,26.115612,119.3148020466318,26.118700746818504,731465.5140833417,2890888.4424974443,350100010074,AMap GCJ-02 converted to WGS84/EPSG:32650 in source final dataset
bus,amap_stop_00297,BV09362027,新浦路(公交站),119.123415,26.150125,119.11845562131406,26.153144233183017,711764.1624094935,2894369.8659911826,900000189727,AMap GCJ-02 converted to WGS84/EPSG:32650 in source final dataset
bus,amap_stop_00298,BV09362541,清凉路(公交站),119.412454,25.972905,119.4075253747959,25.97579238025283,741032.9065409123,2875221.8595542307,900000157702;900000157703,AMap GCJ-02 converted to WGS84/EPSG:32650 in source final dataset
bus,amap_stop_00299,BV09365533,三叉街地铁站B口(公交站),119.323952,26.035704,119.31910577614796,26.038731502519845,732053.753995761,2882035.442817924,350100010003;350100010004;350100010035;350100010051;350100010052;350100010080;350100010087;350100010088;350100010162;350100010165;350100010166;900000175764;900000175765,AMap GCJ-02 converted to WGS84/EPSG:32650 in source final dataset
bus,amap_stop_00300,BV09365534,南台东升(公交站),119.322936,26.034025,119.3180918669374,26.037053298744365,731955.5703933517,2881847.693369307,350100010011;350100010012;350100010503;350100010509;350100010598;350100010599;900000096029;900000096030;900000226062,AMap GCJ-02 converted to WGS84/EPSG:32650 in source final dataset
bus,amap_stop_00301,BV09365535,洪塘公交总站(公交站),119.237102,26.059886,119.23233669182576,26.06301396151265,723322.658008262,2884574.342758376,350100010027;350100010028;350100010228;350100010230;350100010439;350100010440;900000099354;900000099355;900000118768;900000118769;900000240967;900000240970;900000240972;900000240994;900000241115,AMap GCJ-02 converted to WGS84/EPSG:32650 in source final dataset
bus,amap_stop_00302,BV09366585,东陈(公交站),119.422632,26.024661,119.41771020413012,26.027590613247835,741946.7112086655,2880980.178435817,350100010055;350100010056;350100010125;350100010126;350100010234;350100010251;900000097540;900000097541,AMap GCJ-02 converted to WGS84/EPSG:32650 in source final dataset
bus,amap_stop_00303,BV09368782,乌龙江公园管理处(公交站),119.241809,26.031056,119.23704820326412,26.034166336059304,723848.9737809161,2881386.2060569143,900000224227;900000224230,AMap GCJ-02 converted to WGS84/EPSG:32650 in source final dataset
bus,amap_stop_00304,BV09369114,三江口植物园(公交站),119.404971,25.969815,119.40003808151614,25.9726981293924,740289.3263863395,2874865.217944314,900000042667;900000042668;900000157702;900000157703,AMap GCJ-02 converted to WGS84/EPSG:32650 in source final dataset
bus,amap_stop_00305,BV09369568,下柳路(公交站),119.316363,26.139547,119.31152349852282,26.142657229731828,731090.3803919856,2893537.0188085623,900000172638,AMap GCJ-02 converted to WGS84/EPSG:32650 in source final dataset
bus,amap_stop_00306,BV09372883,榕洲花园(公交站),119.14825,26.145761,119.14332811007476,26.14881155829588,714259.0837417243,2893930.620781369,900000189726;900000189727,AMap GCJ-02 converted to WGS84/EPSG:32650 in source final dataset
bus,amap_stop_00307,BV09373020,柳桥(医大口腔医院)(公交站),119.280887,26.081255,119.2761077641278,26.084382346502448,727661.5593415098,2887017.691301196,350100010245;900000169184,AMap GCJ-02 converted to WGS84/EPSG:32650 in source final dataset
bus,amap_stop_00308,BV09374369,湖胶(公交站),119.294046,26.022715,119.28925385702182,26.02578584456819,729090.8944814788,2880548.2993350886,900000182672,AMap GCJ-02 converted to WGS84/EPSG:32650 in source final dataset
bus,amap_stop_00309,BV09374453,杜园山(公交站),119.347146,25.992201,119.3422593852873,25.995155492937144,734457.966587835,2877248.573074695,350100010171;350100010172;350100010193;350100010198;900000242372;900000242373,AMap GCJ-02 converted to WGS84/EPSG:32650 in source final dataset
bus,amap_stop_00310,BV09374454,仙洲路(公交站),119.346364,25.990293,119.34147890615974,25.9932475787178,734383.6028789474,2877035.7735124216,350100010171;350100010172;350100010193;350100010198;900000242372;900000242373,AMap GCJ-02 converted to WGS84/EPSG:32650 in source final dataset
bus,amap_stop_00311,BV09374455,螺洲温泉地铁站C口(公交站),119.348361,25.989845,119.34347244660938,25.99279574748088,734584.1245158581,2876989.289022756,350100010171;350100010172;350100010193;350100010198;900000242372;900000242373,AMap GCJ-02 converted to WGS84/EPSG:32650 in source final dataset
bus,amap_stop_00312,BV09374456,市第一总医院仓山院区(公交站),119.356488,25.986798,119.35158630524715,25.989733034323898,735402.7201267428,2876664.533704692,350100010171;350100010172,AMap GCJ-02 converted to WGS84/EPSG:32650 in source final dataset
bus,amap_stop_00313,BV09375030,半洲(公交站),119.237771,26.056977,119.23300629846858,26.06010331832644,723395.1909606974,2884253.0011116187,900000099354;900000099355;900000118768;900000118769;900000240967;900000240970;900000240972;900000240994;900000241115,AMap GCJ-02 converted to WGS84/EPSG:32650 in source final dataset
bus,amap_stop_00314,BV09375148,登云湖(公交站),119.33977,26.116795,119.33488731260252,26.119846335681267,733472.317412015,2891051.2843924784,900000224763,AMap GCJ-02 converted to WGS84/EPSG:32650 in source final dataset
bus,amap_stop_00315,BV09375149,登云四季(公交站),119.34933,26.124983,119.34442952428626,26.12802238692789,734410.4680733258,2891974.3822409087,900000224763,AMap GCJ-02 converted to WGS84/EPSG:32650 in source final dataset
bus,amap_stop_00316,BV09375150,登云山庄(公交站),119.344478,26.116645,119.33958669229602,26.11968760747948,733942.6995966913,2891042.143528837,900000224763,AMap GCJ-02 converted to WGS84/EPSG:32650 in source final dataset
bus,amap_stop_00317,BV09375151,云谷街区(公交站),119.349055,26.1233,119.34415512453192,26.126338782518275,734386.3853543826,2891787.3393873204,900000224763,AMap GCJ-02 converted to WGS84/EPSG:32650 in source final dataset
bus,amap_stop_00318,BV09375156,长汀街外街(招手即停站)(公交站),119.282392,26.061282,119.27761254961256,26.06439431835839,727850.8364299155,2884805.6719443034,900000107419,AMap GCJ-02 converted to WGS84/EPSG:32650 in source final dataset
bus,amap_stop_00319,BV09375362,双下路首凤山庙站(招手即停点)(公交站),119.27806,26.064492,119.27328502541988,26.067611193711286,727411.5559913783,2885154.536367888,900000028090,AMap GCJ-02 converted to WGS84/EPSG:32650 in source final dataset
bus,amap_stop_00320,BV09375545,洪山桥西公交总站(公交站),119.250938,26.07732,119.24617576808892,26.08046259119951,724674.2277690038,2886531.397864077,350100010405;350100010406,AMap GCJ-02 converted to WGS84/EPSG:32650 in source final dataset
bus,amap_stop_00321,BV09376055,船政路(公交站),119.407525,26.024447,119.40258914695642,26.02736781240223,740433.4102161428,2880927.5330459806,900000125029;900000125030;900000161666;900000161667,AMap GCJ-02 converted to WGS84/EPSG:32650 in source final dataset
bus,amap_stop_00322,BV09376360,涧田湖公园(公交站),119.332858,26.127624,119.32798760037126,26.1306953267261,732760.641282278,2892241.003344753,350100010516;350100010517,AMap GCJ-02 converted to WGS84/EPSG:32650 in source final dataset
bus,amap_stop_00323,BV09376361,涧山巷(公交站),119.334584,26.126107,119.3297104060743,26.12917407619374,732935.9722710976,2892075.5318913897,350100010516;350100010517,AMap GCJ-02 converted to WGS84/EPSG:32650 in source final dataset
bus,amap_stop_00324,BV09376362,石林山(公交站),119.330074,26.124037,119.32520924219668,26.12711133223108,732489.8581526643,2891838.9175401474,350100010516;350100010517,AMap GCJ-02 converted to WGS84/EPSG:32650 in source final dataset
bus,amap_stop_00325,BV09376363,七中主题校区初中部(公交站),119.32985,26.126815,119.32498546512248,26.129891544143124,732461.9678176257,2892146.5700084576,350100010517,AMap GCJ-02 converted to WGS84/EPSG:32650 in source final dataset
bus,amap_stop_00326,BV09376930,船坞边路(公交站),119.459648,25.984309,119.454810570244,25.987273411664543,745744.8206471673,2876582.099813944,900000161666;900000161667,AMap GCJ-02 converted to WGS84/EPSG:32650 in source final dataset
bus,amap_stop_00327,BV09376931,和平小学(公交站),119.439616,26.008196,119.43472502719052,26.011136220931995,743684.0703220409,2879188.604031224,900000161666;900000161667,AMap GCJ-02 converted to WGS84/EPSG:32650 in source final dataset
bus,amap_stop_00328,BV09376932,远洋山水(公交站),119.440841,26.006438,119.43595282983873,26.00937906662496,743810.635483806,2878996.193910328,900000161666;900000161667,AMap GCJ-02 converted to WGS84/EPSG:32650 in source final dataset
bus,amap_stop_00329,BV09376933,联安路口(公交站),119.448598,25.991126,119.44372945322252,25.99407093132441,744621.0133881595,2877314.5070700618,900000161666;900000161667,AMap GCJ-02 converted to WGS84/EPSG:32650 in source final dataset
bus,amap_stop_00330,BV09376934,儒江小学(公交站),119.416344,26.020783,119.41141521887776,26.023705126330995,741324.4798461008,2880537.9872679343,900000161666;900000161667,AMap GCJ-02 converted to WGS84/EPSG:32650 in source final dataset
bus,amap_stop_00331,BV09379426,青岐涵洞口(公交站),119.116461,26.153119,119.11149484971794,26.156133980912298,711062.775126603,2894689.7777700727,350100010053;350100010054;350100010059;350100010060;900000042976;900000043495;900000069610;900000069611,AMap GCJ-02 converted to WGS84/EPSG:32650 in source final dataset
bus,amap_stop_00332,BV09380623,招手即停(七中主题校区初中部)(公交站),119.330603,26.127107,119.32573698689608,26.13018229347688,732536.5573679052,2892180.129857356,350100010516,AMap GCJ-02 converted to WGS84/EPSG:32650 in source final dataset
bus,amap_stop_00333,BV09381796,胪雷路北站(公交站),119.384863,25.993908,119.3799297826384,25.99681384428757,738226.7249594878,2877500.492727315,350100010193;350100010198,AMap GCJ-02 converted to WGS84/EPSG:32650 in source final dataset
bus,amap_stop_00334,BV09385350,儒江(协爱医院)(公交站),119.428208,26.020183,119.42329468399842,26.02311535281148,742514.9790440791,2880494.6651968234,350100010063;350100010126,AMap GCJ-02 converted to WGS84/EPSG:32650 in source final dataset
bus,amap_stop_00335,BV09386258,福州市规划馆站(公交站),119.369705,26.022722,119.36478259721332,26.025662571385897,736652.0921820828,2880669.455337695,900000205226,AMap GCJ-02 converted to WGS84/EPSG:32650 in source final dataset
bus,amap_stop_00336,BV09387311,先行工业科技园(公交站),119.258024,26.062605,119.2532620849122,26.06573649350389,725411.4805701807,2884912.0255356613,350100010211;350100010212,AMap GCJ-02 converted to WGS84/EPSG:32650 in source final dataset
bus,amap_stop_00337,BV09390958,闽江一号(公交站),119.117296,26.15202,119.11233061385563,26.155034935283112,711148.320294867,2894569.3702905457,350100010628;350100010629;900000189726;900000189727,AMap GCJ-02 converted to WGS84/EPSG:32650 in source final dataset
bus,amap_stop_00338,BV09394405,上下杭历史文化街区(公交站),119.306435,26.047422,119.3016206667574,26.050489592585343,730280.5878530296,2883307.2381118177,350100010016;350100010128;350100010363;350100010407,AMap GCJ-02 converted to WGS84/EPSG:32650 in source final dataset
bus,amap_stop_00339,BV09394406,福州二十五中(公交站),119.320559,26.058002,119.31571764095716,26.06105097532312,731670.6987666812,2884502.424773399,350100010035;350100010036;350100010079;350100010080;350100010095;350100010096;350100010105;350100010106;350100010165;350100010166;350100010272;350100010273;350100010316;350100010317;350100010780;900000049875;900000049876;900000083059;900000083060;900000096029;900000096030;900000145013,AMap GCJ-02 converted to WGS84/EPSG:32650 in source final dataset
bus,amap_stop_00340,BV09394407,上下杭历史文化街区(轮工)(公交站),119.306247,26.048309,119.30143293161368,26.051377515607303,730260.0619843963,2883405.2881041416,350100010042;350100010136;350100010142;350100010362;900000185187,AMap GCJ-02 converted to WGS84/EPSG:32650 in source final dataset
bus,amap_stop_00341,BV09398209,福新东路口(公交站),119.363873,26.082467,119.3589533271474,26.085455518201176,735948.651478126,2887284.107660627,900000227835;900000227837,AMap GCJ-02 converted to WGS84/EPSG:32650 in source final dataset
bus,amap_stop_00342,BV09398210,埠兴路(公交站),119.366291,26.077766,119.36136853095807,26.08074805197425,736199.7680420438,2886766.885643934,900000227835;900000227837,AMap GCJ-02 converted to WGS84/EPSG:32650 in source final dataset
bus,amap_stop_00343,BV09398220,闽侯县老年大学(公交站),119.143705,26.15148,119.13877455225185,26.154526755495564,713793.3314538939,2894556.325550919,900000227838;900000227841,AMap GCJ-02 converted to WGS84/EPSG:32650 in source final dataset
bus,amap_stop_00344,BV09398279,省卫生职业技术学校(公交站),119.174029,26.13999,119.16915954099824,26.143083920936416,716852.68558443,2893338.888671042,900000227849;900000227853,AMap GCJ-02 converted to WGS84/EPSG:32650 in source final dataset
bus,amap_stop_00345,BV09398290,闽侯职专(公交站),119.173476,26.137165,119.16860559311996,26.14025608315084,716802.5179729318,2893024.6547614345,900000227853,AMap GCJ-02 converted to WGS84/EPSG:32650 in source final dataset
bus,amap_stop_00346,BV09399588,西二环配客站(公交站),119.289627,26.057768,119.2848386018506,26.06086881802353,728580.8099798274,2884427.7067923807,900000186777;900000186795;900000254748;900000254750,AMap GCJ-02 converted to WGS84/EPSG:32650 in source final dataset
bus,amap_stop_00347,BV09399590,西二环站(公交站),119.289508,26.057829,119.28471976141104,26.06093002123338,728568.7981351279,2884434.279586004,900000228016,AMap GCJ-02 converted to WGS84/EPSG:32650 in source final dataset
bus,amap_stop_00348,BV09405940,福州二十五中(桥北)(公交站),119.320399,26.058665,119.31555789844982,26.061714722450045,731653.4058037162,2884575.6843119143,350100010779;900000254111;900000254118;900000254122,AMap GCJ-02 converted to WGS84/EPSG:32650 in source final dataset
bus,amap_stop_00349,BV09406082,长龙中路(招呼站)(公交站),119.176302,26.153571,119.17143628363372,26.15667775831217,717055.1918366861,2894848.8191573974,350100010731;350100010732,AMap GCJ-02 converted to WGS84/EPSG:32650 in source final dataset
bus,amap_stop_00350,BV09407852,东部办公区(东部专线北侧上下点)(公交站),119.352661,26.040838,119.34776132232288,26.043816051186663,734911.9244757523,2882650.1283451864,900000229312;900000229313,AMap GCJ-02 converted to WGS84/EPSG:32650 in source final dataset
bus,amap_stop_00351,BV09414437,侯官村委会站(公交站),119.191789,26.1002,119.1869588891547,26.10330081625685,718706.7459456642,2888960.934922216,900000187253;900000187256,AMap GCJ-02 converted to WGS84/EPSG:32650 in source final dataset
bus,amap_stop_00352,BV09415231,九彩(公交站),119.293725,26.094916,119.28892792449224,26.09803570496947,728917.687942063,2888552.959299305,350100010099;350100010100;350100010131;350100010132;350100010135;350100010136;350100010151;350100010152;350100010266;350100010267,AMap GCJ-02 converted to WGS84/EPSG:32650 in source final dataset
bus,amap_stop_00353,BV09417158,居然之家(李园)站(公交站),119.33904,26.106667,119.33415944441072,26.10971311614496,733419.6559185648,2889927.1952968067,350100010250;350100010511;350100010512,AMap GCJ-02 converted to WGS84/EPSG:32650 in source final dataset
bus,amap_stop_00354,BV09418258,达道地铁站A口(公交站),119.309425,26.057613,119.3046045520344,26.060682204650345,730559.2658748646,2884441.853776129,350100010008;350100010145,AMap GCJ-02 converted to WGS84/EPSG:32650 in source final dataset
bus,amap_stop_00355,BV09419140,鼓山下院(公交站),119.375543,26.052888,119.370612214912,26.05584221835856,737174.9127812563,2884024.0379223083,900000230820,AMap GCJ-02 converted to WGS84/EPSG:32650 in source final dataset
bus,amap_stop_00356,BV09420116,市一总医院老年院区(公交站),119.322977,26.108174,119.31812719175748,26.111251611381523,731812.8265064372,2890068.9913177365,350100010216,AMap GCJ-02 converted to WGS84/EPSG:32650 in source final dataset
bus,amap_stop_00357,BV09420117,东牙巷(公交站),119.30056,26.089544,119.29575255658511,26.09264957807873,729610.9743904464,2887968.1995488447,350100010108,AMap GCJ-02 converted to WGS84/EPSG:32650 in source final dataset
bus,amap_stop_00358,BV09420681,居然之家(李园)站(东行)(公交站),119.33904,26.106667,119.33415944441072,26.10971311614496,733419.6559185648,2889927.1952968067,350100010255,AMap GCJ-02 converted to WGS84/EPSG:32650 in source final dataset
bus,amap_stop_00359,BV09420682,居然之家(李园)站(西行)(公交站),119.339884,26.106912,119.33500185008612,26.10995670554923,733503.442245322,2889955.697508396,350100010255,AMap GCJ-02 converted to WGS84/EPSG:32650 in source final dataset
bus,amap_stop_00360,BV09423205,金牛山公园(东侧)(公交站),119.261645,26.074701,119.25688099647108,26.077839190339656,725750.3978728452,2886259.244996403,900000048928,AMap GCJ-02 converted to WGS84/EPSG:32650 in source final dataset
bus,amap_stop_00361,BV09423241,江十路(公交站),119.322064,26.052563,119.31722015281402,26.05560547098164,731831.7901700216,2883901.731967634,350100010371,AMap GCJ-02 converted to WGS84/EPSG:32650 in source final dataset
bus,amap_stop_00362,BV09423579,黎明中学(公交站),119.289281,26.068986,119.28449223748298,26.072094800240794,728524.3435679949,2885670.928235268,350100010250;350100010255,AMap GCJ-02 converted to WGS84/EPSG:32650 in source final dataset
bus,amap_stop_00363,BV09477221,招手即停(公交站),119.313598,26.141762,119.30876353165986,26.144878730823525,730809.9928772117,2893778.2578433976,350100010518;350100010519,AMap GCJ-02 converted to WGS84/EPSG:32650 in source final dataset
bus,amap_stop_00364,BV09424609,招手即停(公交站),119.341342,26.147619,119.33645405640443,26.150687098298537,733567.6169502735,2894471.332419817,900000123401;900000124307,AMap GCJ-02 converted to WGS84/EPSG:32650 in source final dataset
bus,amap_stop_00365,BV09478831,招手即停(公交站),119.306223,26.138314,119.30140220119904,26.14144168555074,730080.5708711245,2893384.3724666806,350100010518,AMap GCJ-02 converted to WGS84/EPSG:32650 in source final dataset
bus,amap_stop_00366,BV09429204,福州火车南站(公交站),119.394204,25.982123,119.38926856285784,25.985015778200385,739185.7590652665,2876210.2975190408,900000254762;900000254763,AMap GCJ-02 converted to WGS84/EPSG:32650 in source final dataset
bus,amap_stop_00367,BV09429683,仓山影院站(公交站),119.316346,26.043894,119.3115137440606,26.046941373191093,731277.7053899628,2882931.609618064,350100010272;350100010273;350100010325;350100010371;350100010373;900000025642;900000139516;900000139517;900000232440,AMap GCJ-02 converted to WGS84/EPSG:32650 in source final dataset
bus,amap_stop_00368,BV09431194,招手即停(梅坞路观井路口)(公交站),119.316471,26.04604,119.31163834590048,26.0490885891472,731285.9592185752,2883169.7426048606,900000232440,AMap GCJ-02 converted to WGS84/EPSG:32650 in source final dataset
bus,amap_stop_00369,BV09431195,招手即停(梅坞路烟台山景区)(公交站),119.316969,26.044771,119.3121354974882,26.04781780636236,731338.2138688492,2883029.821763516,900000232440,AMap GCJ-02 converted to WGS84/EPSG:32650 in source final dataset
bus,amap_stop_00370,BV09431196,招手即停(万寿头陀寺)(公交站),119.307553,26.043453,119.3027369815776,26.04651596961738,730400.0886322059,2882868.934197409,900000232440,AMap GCJ-02 converted to WGS84/EPSG:32650 in source final dataset
bus,amap_stop_00371,BV09433645,横屿湖重(公交站),119.356015,26.091941,119.35110605841712,26.09494768914199,735144.4834275485,2888321.6663633427,350100010157;350100010158;900000157129;900000157130,AMap GCJ-02 converted to WGS84/EPSG:32650 in source final dataset
bus,amap_stop_00372,BV09433647,福洋路(公交站),119.355394,26.090913,119.35048611277364,26.093920013887573,735084.5143175435,2888206.677194432,900000157130,AMap GCJ-02 converted to WGS84/EPSG:32650 in source final dataset
bus,amap_stop_00373,BV09433648,玉井路(公交站),119.354826,26.090088,119.3499190766796,26.093095393654053,735029.4316105746,2888114.282971956,900000157129;900000157130,AMap GCJ-02 converted to WGS84/EPSG:32650 in source final dataset
bus,amap_stop_00374,BV09433662,横屿学校(公交站),119.359442,26.092836,119.35452778263348,26.095837901255614,735485.0400043735,2888426.491510779,350100010157;900000157129,AMap GCJ-02 converted to WGS84/EPSG:32650 in source final dataset
bus,amap_stop_00375,BV09433923,茶香路西(公交站),119.336541,26.08551,119.33166675653108,26.08854690132891,733212.3085481843,2887577.469524472,350100010164,AMap GCJ-02 converted to WGS84/EPSG:32650 in source final dataset
bus,amap_stop_00376,BV09433924,晋安政务中心(公交站),119.361843,26.087719,119.35692571627506,26.090713924423014,735735.2279382524,2887863.0810162686,900000079599;900000133373,AMap GCJ-02 converted to WGS84/EPSG:32650 in source final dataset
